TowerID,RingType,Place,Place2,PlaceCL,Dedicn,AltName,County,Country,ISO3166code,Diocese,Lat,Long,Bells,UR,Semitones,Wt,App,Note,Hz,Details,GF,Toilet,Simulator,ExtraInfo,WebPage,Affiliations,NG,Postcode,Practice,OvhaulYr,Contractor,TuneYr,LGrade,BldgID,ChurchCare,TowerBase,DoveID,SNLat,SNLong
12574,Full circle ring,Ab Kettleby,,,S James,,Leicestershire,England,GB,Leicester,52.79858,-0.92747,6,,,974,,G,783.0,C,GF,,,,http://www.abkettlebybells.co.uk/,LeiDG,SK724228,LE14 3HS,Wed,2016,,,II*,1295154,619058,6918,AB KETTLEB,52.79968,-0.92635
13760,Full circle ring,Abbess Roding,,,S Edmund K&M,,Essex,England,GB,Chelmsford,51.77958,0.27690,3,u/r,,448,app,E♭,1248.0,P,GF,,,Unringable; ropes fall in a straight line; no sliders,,,TL571114,CM5 0PA,,,,,II,1111331,608506,7481,ABBESS ROD,,
16153,Full circle ring,Abbey Dore,,,S Mary,,Herefordshire,England,GB,Hereford,51.96860,-2.89361,6,,,917,,G,798.6,C,,,,Anticlockwise; No mains electricity to provide lighting on stairs or ante chamber to protect bat population,http://www.bagleybells.co.uk/towers/herfs.htm#ABBEY_DORE,HDG,SO387303,HR2 0AA,,27 Oct 2013,John Taylor & Co,,I,1099794,618003,0001,ABBEY DORE,,
10151,Full circle ring,Abbots Bickington,,,S James,,Devon,England,GB,Exeter,50.89614,-4.29828,3,u/r,,560,app,D,1357.0,P,GF,,,"Unringable; anticlockwise; notes perceived not=nominal/2; tuning: 1,2,4 of 5",,,SS384132,EX22 7LQ,,,,,II*,1105113,615234,6922,ABBOTS BIC,,
14443,Full circle ring,Abbots Bromley,,,S Nicholas,,Staffordshire,England,GB,Lichfield,52.81844,-1.88389,8,,,1265,,G,776.0,C,,,T,,http://sites.google.com/site/abbotsbromleybellringers/home,LWAS,SK079245,WS15 3DD,Tue 20:00,1977,,,II*,1374461,620067,0002,ABBOTS BRO,52.81826,-1.88254
13781,Full circle ring,Abbots Langley,,,S Lawrence,,Hertfordshire,England,GB,St Albans,51.70775,-0.41716,6,,,1089,,F♯,,P,,T,,,http://www.hcacr.org.uk/watford/alangley/index.html,HCA,TL094021,WD5 0AS,Mon,,,,I,1296433,632229,0003,ABBOTS LAN,,
13048,Full circle ring,Abbots Leigh,,,Holy Trinity,,Somerset,England,GB,Bristol,51.46323,-2.65736,6,,,1288,app,F♯,746.0,P,,T,,,,B&W;G&B,ST544740,BS8 3QT,PN: by arrangement,,,,II*,1312353,605063,0004,ABBOTS LEI,,
14528,Full circle ring,Abbots Ripton,,,S Andrew,,Cambridgeshire,England,GB,Ely,52.38636,-0.19334,3,,,672,app,B,1022.0,P,GF,,,,http://www.huntbell.co.uk/towers/abbots-ripton,,TL230780,PE28 2PW,,,,,I,1330505,614152,6891,ABBOTS RIP,,
16106,Full circle ring,Abbotsbury,,,S Nicholas,,Dorset,England,GB,Salisbury,50.66497,-2.59917,6,,,1093,,G♯,822.0,C,,,,,http://www.sdgr.org.uk/branches/dorchester/tower-1,Salis,SY577852,DT3 4JJ,Wed,1962,John Taylor & Co,1962,I,1305224,634136,0005,ABBOTSBURY,50.66566,-2.59666
13486,Full circle ring,Abbotsham,,,S Helen,,Devon,England,GB,Exeter,51.01557,-4.24735,6,,,1226,,G,772.0,C,GF,,,,,,SS424264,EX39 5AR,Wed,1992,John Taylor & Co,1992,II*,1104408,615443,0006,ABBOTSHAM,,
11765,Full circle ring,Abbotskerswell,,,Blessed Virgin Mary,,Devon,England,GB,Exeter,50.50728,-3.61481,6,,,1120,app,G,803.0,P,,,,,,,SX855687,TQ12 5PG,,,,,II*,1334113,615291,0007,ABBOTSKERS,,
13660,Full circle ring,Abbotsley,,,S Margaret,,Cambridgeshire,England,GB,ChConsvnTrust,52.19345,-0.20544,5,u/r,,1120,app,G♯,,P,,,,One bell (or more) from ring hung dead : tenor; one bell (or more) from ring unhung; unringable; anticlockwise; tuning: 2-6 of 8,http://www.huntbell.co.uk/towers/abbotsley,Ely,TL227565,PE19 6UJ,,,,,II*,1210868,614208,0008,ABBOTSLEY,,
15904,Full circle ring,Abbotts Ann,,,S Mary,,Hampshire,England,GB,Winchester,51.19038,-1.52873,6,,,1098,,F♯,745.5,C,,,,,http://wpbells.org/abbotts-ann/,W&P,SU330435,SP11 7BJ,Thu (alt),,,,I,1228703,641049,0009,ABBOTTS AN,,
13453,Full circle ring,Abenhall,,,S Michael,,Gloucestershire,England,GB,Gloucester,51.85445,-2.47867,3,u/r,,896,app,A♭,,P,GF,,,One bell (or more) cracked or broken; unringable,,G&B,SO671174,GL17 0QD,,,,,II*,1299146,616048,6489,ABENHALL,,
15542,Full circle ring,Aberavon,,,S Mary,Port Talbot,Neath Port Talbot,Wales,GB,Llandaff,51.59631,-3.78749,8,,,1822,,F♯,725.3,C,,,,County books / pNBR info discrepant; tower notice(s) / DBR info discrepant,,L&M,SS762901,SA12 6DU,Mon (1st),,,,II,22802,3790,0010,ABERAVON,,
11708,Full circle ring,Aberdare,,,S Elvan,,Rhondda Cynon Taff,Wales,GB,Llandaff,51.71318,-3.44564,8,,,1817,,E,642.7,C,,T,,Ringing temporarily suspended; tuned to old concert pitch (A=454Hz),http://stelvansbells.weebly.com/,L&M,SO002025,CF44 7NT,,1935,Gillett & Johnston,,II*,10841,3803,0011,ABERDARE,51.71284,-3.44570
13827,Full circle ring,Aberdeen,,Aberdeen Cath,Cath Ch of S Machar,,City of Aberdeen,Scotland,GB,(Not Anglican),57.16977,-2.10266,8,,,1574,,F♯,723.5,P,,,,,http://www.stmachar.com,Scot,NJ938087,AB24 1RN,Mon 18:30,,,1912,A,LB19957,,0012,ABERDEEN,,
12389,Full circle ring,Aberdeen,,Aberdeen RC Cath,Cath Ch of S Mary of The Assumption,,City of Aberdeen,Scotland,GB,Aberdeen,57.14540,-2.10681,8,,,1204,app,A,850.0,P,,,,The ringing bells form part of a 14-bell chime,,Scot,NJ936060,AB10 1QS,Thu (with exceptions),1999,Eayre & Smith,,B,LB19962,,6132,ABERDEENRC,,
17777,Carillon,Aberdeen,,"Aberdeen, S Nicholas Kirk",S Nicholas Kirk,,City of Aberdeen,Scotland,GB,Church of Scotland,57.14750,-2.09946,48,,,10078,,G♯,410.0,P,,T,,,http://www.britishcarillons.org/carillons-in-the-british-isles/aberdeen/,,NJ940062,AB10 1JZ,,,,1954,A,LB19966,,0000,,,
16446,Full circle ring,Aberford,,,S Ricarius,,West Yorkshire,England,GB,York,53.82881,-1.34408,4,,,588,,B,1010.0,C,GF,,,,,YACR,SE432371,LS25 3BR,,1957,John Taylor & Co,,II,1313204,643160,0013,ABERFORD,,
10227,Full circle ring,Abergavenny,,,S Mary,Y Fenni,Monmouthshire,Wales,GB,Monmouth,51.82140,-3.01544,10,,,2818,,D,581.5,C,,,,Access to ringing room by two independent routes,,L&M,SO301141,NP7 5NE,Mon,,,,I,2373,160,0014,ABERGAVENN,,
10276,Full circle ring,Abergele,,,S Michael,,Conwy,Wales,GB,St Asaph,53.28527,-3.58366,6,,,993,,A,,P,,,,,,NWA,SH945776,LL22 7AN,Mon,16 Jul 2016,John Taylor & Co,,II*,237,1025,0015,ABERGELE,,
16770,Full circle ring,Abilene,,,The Heavenly Rest,,Texas,United States of America,US,AnglicanNonUK,32.44421,-99.74567,6,u/r,,705,,B,985.6,P,,,,The ringing bells form part of a 25-bell carillon; unringable,http://www.towerbells.org/data/TXABILHR.HTM,NAG,,79602,,1991,Eayre & Smith,,,,,5850,ABILENE,,
15023,Full circle ring,Abingdon,,"Abingdon, S Helen",S Helen,,Oxfordshire,England,GB,Oxford,51.66771,-1.28284,10,,,1797,,F,700.0,C,,T,T,,http://odg.org.uk/towers/abingdon/helen.htm,ODG,SU496967,OX14 5EH,"Tue (1st, 3rd, 5th)",,,,I,1300979,627295,0016,ABINGDONSH,51.66875,-1.28383
10628,Full circle ring,Abingdon,,"Abingdon, S Nicolas",S Nicolas,,Oxfordshire,England,GB,Oxford,51.67024,-1.28093,6,,,830,,B♭,941.5,C,,,,,http://odg.org.uk/towers/abingdon/nicolas.htm,ODG,SU498970,OX14 3ER,,1933,Gillett & Johnston,,I,1048110,627298,0017,ABINGDONSN,51.67134,-1.27992
15632,Full circle ring,Abson,,,S James Gt,,Gloucestershire,England,GB,Bristol,51.47175,-2.42593,6,,,1172,,F♯,744.0,C,,T,,,http://southglosbells.wordpress.com/abson-s-james-gt/,G&B,ST705748,BS30 5TY,,1926,Gillett & Johnston,1926,I,1216114,605096,0018,ABSON,,
10851,Full circle ring,Accrington,,,S James,,Lancashire,England,GB,Blackburn,53.75196,-2.36551,12,,,1274,,G,776.0,C,,T,,,,Lancs,SD759284,BB5 2ER,Fri,,,,II,1072746,603005,0019,ACCRINGTN,,
11215,Full circle ring,Achurch,,,S John Bapt,Thorpe Achurch,Northamptonshire,England,GB,Peterborough,52.43662,-0.49905,4,,,565,,C,1045.5,P,,,,3rd (5-1-6) is heavier than tenor,,PDG,TL021831,PE8 5SG,,,,,II*,1040142,628314,0020,ACHURCH,,
17105,Full circle ring,Ackworth,,,S Cuthbert,High Ackworth,West Yorkshire,England,GB,Leeds,53.65726,-1.33536,6,,,1568,app,F♯,,P,,,,One bell (or more) from ring unringable: 5th,,YACR,SE440180,WF7 7EJ,Fri,,,,II*,1313257,646011,0021,ACKWORTH,,
15637,Full circle ring,Acle,,,S Edmund,,Norfolk,England,GB,Norwich,52.63720,1.54723,6,,,1050,,G,758.0,C,GF,,,Round tower; tower notice(s) / DBR info discrepant,,NDA,TG401102,NR13 3DG,,,,,I,1372674,626003,0022,ACLE,,
10019,Full circle ring,Acton,,,S Mary,,Cheshire,England,GB,Chester,53.07369,-2.55139,6,,,1464,,F,685.0,C,,,,,,CheDG,SJ631530,CW5 8LE,Tue,1996,John Taylor & Co,,I,1330112,609324,0027,ACTON  CHE,,
11032,Full circle ring,Acton,,,S Mary,,Greater London,England,GB,London,51.50780,-0.27224,8,,,1540,app,F,,P,,,,,,Middx,TQ200801,W3 9NW,,,,,II,1189297,623435,0024,ACTON  LON,,
11817,Full circle ring,Acton,,,All Saints,,Suffolk,England,GB,StEds+Ipswich,52.07307,0.75938,5,,,928,,F♯,750.0,C,GF,,,,http://www.suffolkbells.org.uk/towers/acton1.php,Suff,TL892452,CO10 0BA,,1926,Whitechapel Bell Foundry Ltd,,I,1036718,633282,0025,ACTON  SUF,,
15604,Full circle ring,Acton Burnell,,,S Mary,,Shropshire,England,GB,Hereford,52.61318,-2.69027,4,,,602,,G♯,827.0,C,,,,No regular ringing,,HDG,SJ533019,SY5 7PE,,,,,I,1366700,618327,0026,ACTON BURN,,
11624,Full circle ring,Acton Scott,,,S Margaret,,Shropshire,England,GB,Hereford,52.50003,-2.80629,3,,,784,app,C,1030.0,P,,,,Tuning: 1-3 of 4,,,SO453894,SY6 6QQ,,,,,II*,1383212,618328,6895,ACTON SCOT,,
16659,Full circle ring,Adbaston,,,S Michael & All Angels,,Staffordshire,England,GB,Lichfield,52.84821,-2.35467,4,,,784,app,A,888.5,P,GF,,,,,NSA,SJ762279,ST20 0QG,,,,,II*,1116854,620266,0028,ADBASTON,,
17072,Full circle ring,Adderbury,,,S Mary,,Oxfordshire,England,GB,Oxford,52.01488,-1.31561,8,,,2702,,D,602.0,C,,T,,,,ODG,SP470353,OX17 3LT,Tue,1927,John Taylor & Co,,I,1200012,627128,0029,ADDERBURY,52.01505,-1.31442
17704,Full circle ring,Adderley,,,S Peter,,Shropshire,England,GB,Lichfield,52.95222,-2.50613,3,u/r,,616,app,C,1022.0,P,GF,,,Unringable; ropes fall in a straight line,,,SJ660395,TF9 3TD,,,,,I,1055290,620497,7890,ADDERLEY,,
17108,Full circle ring,Addingham,,,S Peter,,West Yorkshire,England,GB,Leeds,53.94338,-1.87185,6,,,1140,,G,782.0,C,,,,PN alternates with Ilkley,http://www.ilkleybellringing.org.uk/,YACR,SE085497,LS29 0QP,"Wed (2nd, 4th)",1957,John Taylor & Co,,I,1133457,646012,0030,ADDINGHAM,,
15232,Full circle ring,Addington,,,S Mary,,Buckinghamshire,England,GB,Oxford,51.94995,-0.92103,3,u/r,,672,app,B♭,951.5,P,GF,,,Unringable; anticlockwise; tuning: 1-3 of 5,,,SP742284,MK18 2JR,,,,,II*,1214530,627680,6871,ADDINGTN B,,
14695,Full circle ring,Addington,,,S Mary,,Greater London,England,GB,Southwark,51.35840,-0.03240,6,,,765,,B,,P,,,,,http://towers.surreybellringers.org.uk/pages/addington-st-mary,Surr,TQ370639,CR0 5AL,Mon 20:00,1956,Gillett & Johnston,,I,1079343,637367,0032,ADDINGTN L,,
16347,Full circle ring,Addington,,,S Margaret,,Kent,England,GB,Rochester,51.30500,0.37108,4,,,599,,B♭,,P,,,,Tower notice(s) / DBR info discrepant; 3rd (5-1-18) is heavier than tenor,http://kent.lovesguide.com/tower.php?id=1,KCA,TQ653588,ME19 5BQ,,1969,Whitechapel Bell Foundry Ltd,1969,I,1070567,631158,0031,ADDINGTN K,51.30681,0.37299
11106,Full circle ring,Addlethorpe,,,S Nicholas,,Lincolnshire,England,GB,Lincoln,53.19628,0.32008,6,,,1188,,F,719.0,C,GF,,,,,LinDG,TF550690,PE24 4TA,,1981,John Taylor & Co,,I,1359681,621500,0033,ADDLETHORP,,
15785,Full circle ring,Adelaide,,Adelaide RC Cath,Cath Ch of S Francis Xavier,,South Australia,Australia,AU,Adelaide,-34.92883,138.60127,12,,2#,3193,,D♭,565.5,C,,,,Only limited ringing allowed - call ahead,http://www.anzab.org.au/towers.php?tower=SFX,ANZAB,,,,1996,Local labour/guild/assn,1996,,,,5988,ADELA   SF,,
16198,Full circle ring,Adelaide,,Adelaide Cath,Cath Ch of S Peter,,South Australia,Australia,AU,AnglicanNonUK,-34.91308,138.59834,8,,,4620,,C,518.0,C,,,,CC recognised Ringing Centre,http://www.anzab.org.au/towers.php?tower=ADE,ANZAB,,,Tue,,,,,,,5916,ADELA   CA,,
17138,Full circle ring,Adelaide,Walkerville,"Adelaide, Walkerville",S Andrew,Walkerville,South Australia,Australia,AU,AnglicanNonUK,-34.89176,138.61596,6,,,1398,,F♯,743.0,C,,,,,http://www.anzab.org.au/towers.php?tower=WAL,ANZAB,,,,2 Oct 2020,John Taylor & Co,2020,,,,5919,ADELA WLK,,
15246,Full circle ring,Adelaide,Prospect,"Adelaide, Prospect",S Cuthbert,Prospect,South Australia,Australia,AU,AnglicanNonUK,-34.89183,138.59481,8,,,1262,,G,776.0,C,GF,,,Detached tower,http://www.anzab.org.au/towers.php?tower=PRO,ANZAB,,,Fri,1971,John Taylor & Co,,,,,5918,ADELA PRS,,
16422,Full circle ring,Adelaide,,"Adelaide, Town Hall",Town Hall,,South Australia,Australia,AU,Secular Tower,-34.92613,138.59988,8,,,1525,,F,683.5,C,,,,,http://www.anzab.org.au/towers.php?tower=ATH,ANZAB,,,Mon (monthly: check) 17:30,1981,,,,,,5917,ADELA   TH,,
11846,Full circle ring,Adisham,,,Holy Innocents,,Kent,England,GB,Canterbury,51.24401,1.19033,4,u/r,,812,app,B♭,,P,,,,"One bell (or more) from ring hung dead : tenor; one bell (or more) from ring unhung : 1,2,3; unringable",http://kent.lovesguide.com/tower.php?id=2,KCA,TR227542,CT3 3LH,,,,,I,1123715,606003,0034,ADISHAM,,
13967,Full circle ring,Adlestrop,,,S Mary Magd,,Gloucestershire,England,GB,Gloucester,51.94001,-1.64815,6,,,525,,C,1072.0,C,,,,,http://www.bagleybells.co.uk/towers/glos.htm#ADLESTROP,G&B,SP242268,GL56 0YN,,27 May 2016,Whitechapel Bell Foundry Ltd,2016,II,1341100,616374,0035,ADLESTROP,,
14168,Full circle ring,Adlington,,,S Paul,,Lancashire,England,GB,Blackburn,53.61651,-2.60109,8,,,1488,,F,710.0,C,,T,,,,Lancs,SD603134,PR6 9QR,Thu,,,,II,1072623,603070,0036,ADLINGTON,53.61589,-2.59988
10510,Full circle ring,Advent,,,S Adwena,Tresinney,Cornwall,England,GB,Truro,50.60336,-4.67982,6,,,416,,C♯,1077.0,C,GF,,,,,TruDG,SX104816,PL32 9QW,,2004,,,I,1328128,639248,0037,ADVENT,,
14127,Full circle ring,Adwick le Street,,,S Laurence,,South Yorkshire,England,GB,Sheffield,53.57115,-1.18479,6,,,1144,,G♯,818.5,C,,T,,,,YACR,SE540085,DN6 7AP,Fri 18:30,,,,II*,1151473,635141,0038,ADWICK LE,,
13729,Full circle ring,Ainderby Steeple,,,S Helen,,North Yorkshire,England,GB,Leeds,54.32334,-1.48731,6,,,1115,,G,806.5,C,,T,,,http://www.riponandleedsbells.org.uk/ainderby_steeple.htm,YACR,SE334920,DL7 9PS,Fri,,,,I,1315088,646014,0039,AINDERBY,,
16143,Full circle ring,Alberbury,,,S Michael & All Angels,,Shropshire,England,GB,Hereford,52.72388,-2.95095,5,u/r,,868,app,,,P,,,,Unringable,,HDG,SJ358144,SY5 9AH,,,,,II*,1055242,618424,0041,ALBERBURY,,
13575,Full circle ring,Albrighton,,,S Mary Magd,,Shropshire,England,GB,Lichfield,52.63724,-2.28327,8,,,1246,,G,775.0,P,,,,,http://www.sacbr.org.uk/Towers/Albrighton/Albrighton.html,Salop,SJ809044,WV7 3EQ,Mon,,,,II*,1053700,620536,0042,ALBRIGHTON,,
11571,Full circle ring,Alburgh,,,All Saints,,Norfolk,England,GB,Norwich,52.43635,1.33908,8,,,1104,,G,,P,,,,,,NDA,TM270872,IP20 0BY,Mon (4th),1996,A E W Baines,,I,1373533,626404,0043,ALBURGH,,
11127,Full circle ring,Albury,,,S Mary,,Hertfordshire,England,GB,St Albans,51.90264,0.08516,6,,,1537,,F,691.0,P,GF,T,,,http://www.hcacr.org.uk/bstortford/albury/index.html,HCA,TL435247,SG11 2JQ,Mon,1965,John Taylor & Co,1965,II*,1308146,632062,0044,ALBURY HTS,,
12325,Full circle ring,Albury,,,S Matthew,,New South Wales,Australia,AU,AnglicanNonUK,-36.08005,146.91624,8,,,889,,A♭,833.5,C,GF,,,,http://www.anzab.org.au/towers.php?tower=ALB,ANZAB,,,Tue 17:30,,,,,,,5933,ALBURY NSW,,
17080,Full circle ring,Albury,,,S Peter & S Paul,,Surrey,England,GB,Guildford,51.21818,-0.49771,6,,,1746,,F,679.0,C,,,,,,GDG,TQ050476,GU5 9AL,Mon,,,,II,1029561,617020,0045,ALBURY SRY,,
12246,Full circle ring,Alcester,,,S Nicholas,,Warwickshire,England,GB,Coventry,52.21534,-1.86914,8,,,1413,,F♯,733.0,C,,,,,http://warksbells.co.uk/alcester/,CovDG,SP090574,B49 5AJ,Thu (with exceptions),,,,II*,1200612,611128,0046,ALCESTER,,
12292,Full circle ring,Alconbury,,,S Peter & S Paul,,Cambridgeshire,England,GB,Ely,52.37032,-0.26168,6,u/r,,1243,,G,,P,GF,,,Unringable,http://www.huntbell.co.uk/towers/alconbury,Ely,TL184761,PE28 4DZ,,,,,I,1330459,614153,0047,ALCONBURY,,
14986,Full circle ring,Aldborough,,,S Andrew,,North Yorkshire,England,GB,Leeds,54.09216,-1.38095,6,,,1260,,G,781.0,C,GF,,,,http://www.riponandleedsbells.org.uk/aldborough.htm,YACR,SE405664,YO51 9ER,,1958,John Taylor & Co,,I,1173835,646016,0048,ALDBOROUGH,,
16642,Full circle ring,Aldbourne,,,S Michael,,Wiltshire,England,GB,Salisbury,51.48066,-1.62162,8,,,2128,app,E♭,,P,,T,,,http://www.sdgr.org.uk/branches/marlborough/tower-2,Salis,SU263758,SN8 2EL,Fri,,,,I,1034152,634554,0049,ALDBOURNE,,
17145,Full circle ring,Aldbury,,,S John Bapt,,Hertfordshire,England,GB,St Albans,51.80254,-0.60422,6,,,762,,B♭,932.2,C,GF,T,,,http://www.hcacr.org.uk/western/aldbury/index.html,HCA,SP963124,HP23 5RR,Wed 20:00,1984,John Taylor & Co,1984,I,1078047,632055,0050,ALDBURY,,
17039,Full circle ring,Aldeburgh,,,S Peter & S Paul,,Suffolk,England,GB,StEds+Ipswich,52.15494,1.59969,8,,,1308,,A♭,822.0,C,,,,,http://www.suffolkbells.org.uk/towers/aldeburgh1.php,Suff,TM463568,IP15 5DY,Mon (exc Bank Hols),1960,John Taylor & Co,1960,II*,1269731,633461,0051,ALDEBURGH,,
15301,Full circle ring,Aldeby,,,S Mary,,Norfolk,England,GB,Norwich,52.48265,1.60751,5,,,896,app,G,803.5,P,,,,Not well in tune,,NDA,TM450933,NR34 0BJ,,,,,I,1050600,626334,0052,ALDEBY,,
15828,Full circle ring,Aldenham,,,S John Bapt,,Hertfordshire,England,GB,St Albans,51.67340,-0.35318,8,,,1680,app,E,677.5,P,,,,,http://www.hcacr.org.uk/watford/aldenham/index.html,HCA,TQ139984,WD25 8BA,Mon 20:00,1966,,,I,1103642,632003,0053,ALDENHAM,,
10431,Full circle ring,Aldermaston,,,S Mary V,,Berkshire,England,GB,Oxford,51.38070,-1.14440,8,,,1190,,G,769.0,C,,,,,https://bellsnearnewbury.org.uk/branch-towers/,ODG,SU596649,RG7 4HR,Thu,1900,,,I,1117319,627340,0054,ALDERMASTO,,
12943,Full circle ring,Alderminster,,,S Mary & Holy Cross,,Warwickshire,England,GB,Coventry,52.13553,-1.66542,6,,,1370,,F,712.0,C,,,,,http://warksbells.co.uk/alderminster/,CovDG,SP229486,CV37 8PF,,,,,II*,1382532,611191,0055,ALDERMINST,,
10989,Full circle ring,Aldershot,,,S Michael Archangel,,Hampshire,England,GB,Guildford,51.24158,-0.75605,8,,,996,,A,871.0,C,GF,T,,,,GDG,SU869498,GU11 3HN,Thu,20 Dec 2016,John Taylor & Co,,II,1339670,617005,0056,ALDERSHOT,,
15140,Full circle ring,Alderton,,,S Margaret,,Gloucestershire,England,GB,Gloucester,51.99708,-1.99856,6,,,1064,app,A,856.5,P,,T,,PN shared: Alderton; Dumbleton,http://www.bagleybells.co.uk/towers/glos.htm#ALDERTON_G,G&B,SP001331,GL20 8NR,"Thu (2nd, 4th)",1909,Henry Bond,,II*,1091731,616400,0057,ALDERTON G,,
10269,Full circle ring,Alderton,,,S Margaret,,Northamptonshire,England,GB,Peterborough,52.11553,-0.92019,5,,,863,,G♯,832.0,C,GF,,,,,PDG,SP740469,NN12 7LP,,2008,Whites of Appleton,,II*,1190752,628127,0058,ALDERTON N,,
12958,Full circle ring,Alderton,,,S Giles,,Wiltshire,England,GB,Bristol,51.54621,-2.22944,6,,,1004,,F♯,751.5,C,,,,,,G&B,ST841830,SN14 6PH,,1998,Robert Parker,,II*,1022362,605189,0059,ALDERTON W,,
13871,Full circle ring,Aldford,,,S John Bapt,,Cheshire,England,GB,Chester,53.12899,-2.86997,6,,,1448,,E,673.0,C,,,,,,CheDG,SJ418594,CH3 6JE,Tue,,,,II,1135984,609082,0060,ALDFORD,,
12391,Full circle ring,Aldingbourne,,,S Mary V,,West Sussex,England,GB,Chichester,50.84154,-0.68985,5,,,714,,B,960.0,C,GF,T,,,,SuxCA,SU923054,PO20 3TT,Mon (exc Bank Hols),,,,I,1027736,610003,6028,ALDINGBOUR,,
17005,Full circle ring,Aldington,,,S Martin,,Kent,England,GB,Canterbury,51.08746,0.96131,6,,,1551,,F,718.0,C,,,,,http://kent.lovesguide.com/tower.php?id=3,KCA,TR074361,TN25 7EG,"Wed (2nd, 4th: check)",1928,Mears & Stainbank,1928,I,1071208,606247,0061,ALDINGTON,,
15282,Full circle ring,Aldridge,,,S Mary V,,West Midlands,England,GB,Lichfield,52.60435,-1.91281,8,,,1014,,A,870.0,C,,,,,,LWAS,SK060007,WS9 8NH,Thu,,,,II*,1076396,620138,0062,ALDRIDGE,,
16493,Full circle ring,Aldrington,,,S Leonard,Hove,East Sussex,England,GB,Chichester,50.83291,-0.20396,6,,,1106,,G,799.0,C,GF,,,,,SuxCA,TQ265052,BN3 4ED,Tue,,,,II,1298645,610081,0063,ALDRINGTON,50.83256,-0.20280
15116,Full circle ring,Aldwick,,,S Richard,,West Sussex,England,GB,Chichester,50.78389,-0.71120,8,,,894,,B♭,923.0,C,,,,,,SuxCA,SZ909990,PO21 3RD,Tue,2007,Andrew Nicholson,,None,None,610004,0064,ALDWICK,,
16124,Full circle ring,Aldwincle,,,S Peter,,Northamptonshire,England,GB,Peterborough,52.42547,-0.52191,5,,,1415,,G,788.0,C,GF,,,,,PDG,TL006818,NN14 3UU,,,,,I,1040308,628299,0065,ALDWINCLE,,
11600,Full circle ring,Aldworth,,,S Mary V,,Berkshire,England,GB,Oxford,51.51064,-1.20320,3,,,1058,,A♭,825.5,C,GF,T,,,,,SU553793,RG8 9SB,,2011,Whites of Appleton,,I,1313119,627341,6923,ALDWORTH,,
13507,Full circle ring,Alexandria,,,"Virginia Theological Seminary, Immanuel Chapel",,Virginia,United States of America,US,AnglicanNonUK,38.81981,-77.09261,8,,,1218,,G,784.0,C,,T,T,,,NAG,,,Mon 18:00,,,,,,,7791,ALEXANDRIA,,
12570,Full circle ring,Alfold,,,S Nicholas,,Surrey,England,GB,Guildford,51.09570,-0.52033,6,,,747,,B♭,914.0,C,GF,T,,,,GDG,TQ037339,GU6 8EU,Thu,2003,Andrew Nicholson,2003,I,1352752,617022,6924,ALFOLD,,
11928,Full circle ring,Alford,,,S Wilfrid,,Lincolnshire,England,GB,Lincoln,53.26164,0.18054,6,,,1396,,F♯,753.0,C,,,,,,LinDG,TF455760,LN13 9EG,Thu 19:00,26 Aug 2015,John Taylor & Co,,I,1063026,621501,0066,ALFORD,,
11489,Full circle ring,Alfreton,,,S Martin,,Derbyshire,England,GB,Derby,53.09860,-1.39345,8,,,1203,,G,802.0,C,,T,,,,DDA,SK407558,DE55 7AH,,27 Jan 2015,Whitechapel Bell Foundry Ltd,2015,II*,1335406,612003,0067,ALFRETON,,
15365,Full circle ring,Alfriston,,,S Andrew,,East Sussex,England,GB,Chichester,50.80658,0.15802,6,,,962,,A,884.0,C,GF,,,Rung from chancel crossing,,SuxCA,TQ521030,BN26 5TL,Tue,,,,I,1043353,610428,0069,ALFRISTON,,
15381,Full circle ring,Algarkirk,,,S Peter & S Paul,,Lincolnshire,England,GB,Lincoln,52.89948,-0.08169,6,u/r,,1344,app,F♯,,P,GF,,,Unringable; anticlockwise; rung from chancel crossing,,LinDG,TF291352,PE20 2HH,,,,,I,1164857,621192,0070,ALGARKIRK,,
15237,Full circle ring,Alkborough,,,S John Bapt,,Lincolnshire,England,GB,Lincoln,53.68607,-0.66615,3,u/r,,1344,app,A♭,803.0,P,GF,T,,"Unringable; tuning: (approx) 1,2♭,3 of 3",,,SE881218,DN15 9JF,,1910,John Taylor & Co,,I,1241758,621346,6270,ALKBOROUGH,,
16602,Full circle ring,Alkham,,,S Anthony,,Kent,England,GB,Canterbury,51.13609,1.22244,4,,,784,app,B♭,929.0,P,GF,,,,http://kent.lovesguide.com/tower.php?id=4,KCA,TR255423,CT15 7DE,,,,,I,1084358,606066,0072,ALKHAM,,
15698,Full circle ring,All Cannings,,,All Saints,,Wiltshire,England,GB,Salisbury,51.35313,-1.90131,6,,,1591,,E,662.5,C,,T,,,http://www.sdgr.org.uk/branches/devizes/tower-3,Salis,SU069615,SN10 3PF,,1996,Eayre & Smith,,II*,1365955,634525,0073,ALL CANNIN,,
15435,Full circle ring,Allendale,,,S Cuthbert,,Northumberland,England,GB,Newcastle,54.89802,-2.25457,8,,,1129,,G,781.0,C,,T,,,http://allendalebells.wordpress.com/,D&N,NY837559,NE47 9BD,Wed,,,,II,1042941,625062,0074,ALLENDALE,,
13626,Full circle ring,Allensmore,,,S Andrew,,Herefordshire,England,GB,Hereford,52.01873,-2.77932,6,,,1222,,G,766.0,C,GF,,,,http://www.bagleybells.co.uk/towers/herfs.htm#ALLENSMORE,HDG,SO466358,HR2 9AG,,2005,John Taylor & Co,,II*,1099725,618005,0075,ALLENSMORE,,
16759,Full circle ring,Aller,,,S Andrew,,Somerset,England,GB,Bath+Wells,51.05536,-2.86285,6,,,770,,G,795.0,C,GF,,,County books / pNBR info discrepant,http://bath-wells.org/towerselect.php?DoveID=ALLER,B&W,ST396288,TA10 0QR,PN: check with contact,1999,Robert Parker,,II*,1227327,601143,6102,ALLER,,
15758,Full circle ring,Allerston,,,S John,,North Yorkshire,England,GB,York,54.23443,-0.65425,3,,,496,,C,1039.5,C,GF,,,,,,SE878829,YO18 7PP,,,,,II*,1149549,643537,6196,ALLERSTON,,
16144,Full circle ring,Allerton Mauleverer,,,S Martin,,North Yorkshire,England,GB,ChConsvnTrust,54.01594,-1.36679,3,u/r,,560,app,B,,P,,,,One bell (or more) cracked or broken; unringable; anticlockwise,,,SE415579,HG5 0SE,,,,,II*,1149996,,7372,ALLERTON M,,
13782,Full circle ring,Allesley,,,All Saints,,West Midlands,England,GB,Coventry,52.42306,-1.55765,8,,,1344,,A♭,808.5,C,,T,,,http://warksbells.co.uk/allesley/,CovDG,SP301806,CV5 9ES,Tue,1946,John Taylor & Co,,I,1342900,611019,0076,ALLESLEY,52.42336,-1.55855
16519,Full circle ring,Allestree,,,S Edmund K&M,,Derbyshire,England,GB,Derby,52.95366,-1.48375,3,,,922,,A,875.5,P,,T,,"Anticlockwise; tuning: 1,2,4 of 5",,DDA,SK347397,DE22 2DZ,,,,,II*,1228939,612231,6060,ALLESTREE,52.95372,-1.48408
11242,Full circle ring,Allexton,,,S Peter,,Leicestershire,England,GB,ChConsvnTrust,52.59533,-0.79453,4,,,939,,A,863.0,C,GF,,,Tuning: 1-4 of 5,,LeiDG,SK817004,LE15 9AB,,2007,Meadwell Church Restoration,,II*,1061661,619093,0077,ALLEXTON,,
16059,Full circle ring,Allington,,,S John Bapt,,Wiltshire,England,GB,FriendsOfFC,51.15330,-1.70949,3,u/r,,672,app,C♯,1118.0,P,GF,,,"Unringable; ropes fall in a straight line; rung from porch; tuning: 1,3,4 of 6",,,SU204393,SP4 0BX,,,,,II,1300482,634330,6900,ALLINGTON,,
11838,Full circle ring,Alloa,,,S John Ev,,Clackmannanshire,Scotland,GB,(Scotland),56.11264,-3.79367,8,,,1476,,F♯,741.0,C,,T,,,,Scot,NS885925,FK10 1AN,,,,,B,LB20957,,0078,ALLOA,,
10843,Full circle ring,Almeley,,,S Mary,,Herefordshire,England,GB,Hereford,52.15777,-2.97702,6,,,1259,,G,776.0,C,GF,T,,,http://www.bagleybells.co.uk/towers/herfs.htm#ALMELEY,HDG,SO332515,HR3 6LB,Fri (2nd),,,,I,1081702,618130,0079,ALMELEY,,
15599,Full circle ring,Almer,,,S Mary,,Dorset,England,GB,Salisbury,50.78985,-2.12470,4,u/r,,1232,app,F♯,,P,,,,Unringable Wheels removed,http://www.sdgr.org.uk/branches/east-dorset/tower-4,Salis,SY913989,DT11 9EN,,,,,I,1154550,634202,5768,ALMER,,
13733,Full circle ring,Almondbury,,,All Hallows,,West Yorkshire,England,GB,Leeds,53.63174,-1.74709,8,,,2037,,E,668.5,C,,,,,,YACR,SE168150,HD5 8US,Mon,,,,I,1225096,646022,0080,ALMONDBURY,,
13610,Full circle ring,Almondsbury,,,S Mary V,,Gloucestershire,England,GB,Bristol,51.55419,-2.57335,8,,,2309,,D,582.5,C,,T,,,http://almondsburychurch.org.uk/bell-ringers,G&B,ST603840,BS32 4DT,Mon,28 Mar 2019,John Taylor & Co,2019,I,1128858,605104,0081,ALMONDSBUR,,
14007,Full circle ring,Alnwick,,"Alnwick, S Michael",S Michael,,Northumberland,England,GB,Newcastle,55.41688,-1.71138,10,,,1129,,G,780.0,P,,,,,,,NU183137,NE66 1NB,,12 Aug 2021,Whites of Appleton,2021,I,1041546,625172,7586,ALNWICK MI,,
11675,Full circle ring,Alnwick,,"Alnwick, S Paul",S Paul,,Northumberland,England,GB,Hexham and Newcastle,55.41109,-1.70667,8,u/r,,2123,,E♭,,P,,T,,Former church of S Paul (Anglican) (until 1982); unringable,,D&N,NU186130,NE66 1UW,,,,,II*,1041438,625173,0082,ALNWICKRC,,
15616,Full circle ring,Alrewas,,,All Saints,,Staffordshire,England,GB,Lichfield,52.73476,-1.75334,8,,,1349,,G,759.0,P,,T,,,,LWAS,SK167152,DE13 7BX,Tue,,,,I,1038926,620021,0084,ALREWAS,52.73522,-1.75370
15684,Full circle ring,Alsager,,,Christ Church,,Cheshire,England,GB,Chester,53.09772,-2.31682,8,,,1196,,G♯,,P,,,,,,CheDG,SJ788556,ST7 2HS,Mon,,,,II*,1138754,609219,0085,ALSAGER,,
14139,Full circle ring,Alstonefield,,,S Peter,,Staffordshire,England,GB,Lichfield,53.09512,-1.80338,6,,,1214,,G,782.0,C,,,,,,NSA,SK132553,DE6 2FX,Wed,,,,I,1038158,620231,0086,ALSTONEFIE,,
11467,Full circle ring,Altarnun,,,S Nonna,,Cornwall,England,GB,Truro,50.60464,-4.51315,8,,,1279,,F♯,726.0,C,,,,,,TruDG,SX222813,PL15 7SJ,,2010,Whites of Appleton,2010,I,1142805,639220,0087,ALTARNUN,,
11730,Full circle ring,Alton,,"Alton, All Ss",All Saints,,Hampshire,England,GB,Winchester,51.14539,-0.98042,6,,,676,,B,996.0,C,,,,,http://wpbells.org/alton/,W&P,SU714389,GU34 1HU,Tue,,,,II,1391647,641026,6005,ALTON H AS,51.14508,-0.98028
11925,Full circle ring,Alton,,"Alton, S Lawrence",S Lawrence,,Hampshire,England,GB,Winchester,51.15109,-0.97589,8,,,2064,,E,664.0,P,,,,,http://wpbells.org/alton-st-lawrence/,W&P,SU717395,GU34 2BY,Thu,,,,I,1338903,641027,0088,ALTON H L,,
14384,Full circle ring,Alton,,,S Peter,,Staffordshire,England,GB,Lichfield,52.97830,-1.89194,8,,,2522,,E♭,621.0,C,,T,,,,NSA,SK073423,ST10 4AQ,Mon,,,,II*,1191066,620247,0089,ALTON STAF,,
15734,Full circle ring,Alton Priors,,,All Saints,,Wiltshire,England,GB,ChConsvnTrust,51.35804,-1.84475,3,u/r,,658,,D♭,1105.0,C,GF,,,"Unringable; ropes fall in a straight line; No mains electricity; tuning: 2,3,5 of 8",,,SU109621,SN8 4JZ,,,,,II*,1364710,,7461,ALTONPRIOR,,
15221,Full circle ring,Alvechurch,,,S Lawrence,,Worcestershire,England,GB,Worcester,52.35000,-1.96260,8,,,1345,,G,785.1,C,,T,,,,WDA,SP026724,B48 7SB,Tue,2012,Whites of Appleton,,II*,1100225,642145,0091,ALVECHURCH,,
10835,Full circle ring,Alvediston,,,S Mary,,Wiltshire,England,GB,Salisbury,51.01489,-2.03465,3,u/r,,896,app,G♯,821.0,P,GF,,,"Unringable; tuning: (approx) 1,2,4 of 5",,,ST976239,SP5 5LE,,,,,II*,1318670,634371,7413,ALVEDISTON,,
14894,Full circle ring,Alveley,,,S Mary V,,Shropshire,England,GB,Hereford,52.45831,-2.35547,6,,,1151,,G,783.0,C,,T,,,,HDG,SO759845,WV15 6ND,Thu,1959,,,II*,1053191,618264,0092,ALVELEY,52.45772,-2.35504
15425,Full circle ring,Alverdiscott,,,All Saints,,Devon,England,GB,Exeter,51.00754,-4.11171,3,u/r,,896,app,B♭,,P,GF,,,"Derelict; unringable; tuning: 1,3,4 of 4",,,SS519252,EX31 3QJ,,,,,II*,1170720,615518,6925,ALVERDISCO,,
10747,Full circle ring,Alverstoke,,,S Mary,,Hampshire,England,GB,Portsmouth,50.78565,-1.14825,8,,,1503,,F♯,733.5,C,,,,,http://wpbells.org/ALVERSTOKE,W&P,SZ601987,PO12 2EH,Fri,,,,II,1232651,629003,0093,ALVERSTOKE,,
12335,Full circle ring,Alvescot,,,S Peter,,Oxfordshire,England,GB,Oxford,51.73945,-1.60491,6,,,1028,,A,874.5,C,GF,,,,,ODG,SP273046,OX18 2PT,,,,,II*,1198102,627232,0095,ALVESCOT,,
11351,Full circle ring,Alveston,,,S Helen,,Gloucestershire,England,GB,Bristol,51.58501,-2.53049,6,,,1680,app,F♯,722.0,P,,T,,,http://southglosbells.wordpress.com/alveston-s-helen/,G&B,ST633874,BS35 3QG,Tue,,,,II,1128881,605105,0096,ALVESTON G,,
11312,Full circle ring,Alveston,,,S James,,Warwickshire,England,GB,Coventry,52.20478,-1.66228,6,,,840,app,A,882.0,P,,T,,,http://warksbells.co.uk/alveston/,CovDG,SP231563,CV37 7QJ,Wed,,,,II,1204420,611161,0097,ALVESTON W,,
13105,Full circle ring,Alvingham,,,S Adelwold,,Lincolnshire,England,GB,Lincoln,53.40088,0.05596,3,,,1008,app,A,871.5,P,GF,,,Anticlockwise; Shares a churchyard with North Cockerington (the only example of two rings of bells in one churchyard),,,TF367913,LN11 0QD,,,,,I,1063076,621649,6237,ALVINGHAM,,
10210,Full circle ring,Alvington,,,S Andrew,,Gloucestershire,England,GB,Gloucester,51.70344,-2.57578,5,,,998,,A,886.0,P,GF,,,,http://www.bagleybells.co.uk/towers/glos.htm#ALVINGTON,G&B,SO603006,GL15 6BQ,Wed 15:00,1996,Nick Hopkins,,II,1186572,616080,0098,ALVINGTON,,
12351,Full circle ring,Alwalton,,,S Andrew,,Cambridgeshire,England,GB,Ely,52.54950,-0.32991,5,,,904,,G♯,834.0,P,,T,,,http://www.huntbell.co.uk/towers/alwalton,Ely,TL133959,PE7 3UU,Mon (monthly: check),1993,,,I,1330532,614226,0099,ALWALTON,,
10460,Full circle ring,Alwington,,,S Andrew,,Devon,England,GB,Exeter,50.98566,-4.27440,6,,,1288,,F♯,755.5,C,GF,,,,,DevAs,SS404231,EX39 5DA,PN: by arrangement,1946,Gillett & Johnston,,I,1170749,615444,0100,ALWINGTON,,
10432,Full circle ring,Amberley,,,S Michael,,West Sussex,England,GB,Chichester,50.90914,-0.53961,5,,,657,,B,968.0,C,,,,Anticlockwise,,SuxCA,TQ027132,BN18 9NF,Fri (confirm first) 19:00,1950,Gillett & Johnston,1950,I,1353924,610288,0101,AMBERLEY,,
12386,Full circle ring,Ambleside,,,S Mary,,Cumbria,England,GB,Carlisle,54.43060,-2.96638,8,,,3642,,D♭,552.0,C,,,,,http://amblesideonline.co.uk/useful-information/clubs/ambleside-bellringers/,Lancs,NY374043,LA22 9DH,Mon,1998,Local labour/guild/assn,,II*,1244784,607241,0103,AMBLESIDE,54.43053,-2.96538
10327,Full circle ring,Ambrosden,,,S Mary V,,Oxfordshire,England,GB,Oxford,51.86997,-1.12580,8,,,2274,,E,645.5,C,GF,T,,,,ODG,SP602194,OX25 2UJ,,1928,John Taylor & Co,,II*,1046525,627029,0104,AMBROSDEN,51.86993,-1.12506
11899,Full circle ring,Amcotts,,,S Mark,,Lincolnshire,England,GB,Lincoln,53.61670,-0.70880,3,u/r,,542,,E♭,1251.5,C,,T,,Unringable,,,SE855141,DN17 4AL,,,,,II,1083283,621276,6254,AMCOTTS,,
14913,Full circle ring,Amersham,,,S Mary V,,Buckinghamshire,England,GB,Oxford,51.66696,-0.61642,12,,2#,2134,,E,659.0,C,,T,,,,ODG,SU957973,HP7 0DE,Wed,,,,I,1124855,627562,0105,AMERSHAM,,
13162,Full circle ring,Amesbury,,,S Mary & S Melor,,Wiltshire,England,GB,Salisbury,51.17191,-1.78428,8,,,2053,,E♭,606.5,P,,,,,http://www.sdgr.org.uk/branches/salisbury/tower-5,Salis,SU151414,SP4 7EU,Mon,1999,Andrew Nicholson,1999,I,1182066,634356,0106,AMESBURY,,
16919,Full circle ring,Ampleforth,,,S Hilda,,North Yorkshire,England,GB,York,54.20018,-1.10802,3,u/r,,504,app,C♯,1125.0,P,GF,,,Unringable; tuning: 1-3 of 5,,,SE582786,YO62 4DT,,,,,II,1149609,643461,6926,AMPLEFORTH,,
11001,Full circle ring,Ampney Crucis,,,Holy Rood,,Gloucestershire,England,GB,Gloucester,51.71573,-1.90745,6,,,780,,A♭,844.0,C,GF,,,,http://www.bagleybells.co.uk/towers/glos.htm#AMPNEY_CRU,G&B,SP064018,GL7 5RY,Mon,1988,Whites of Appleton,,I,1172051,616274,0107,AMPNEY CRU,,
15890,Full circle ring,Amport,,,S Mary,Amport St Mary,Hampshire,England,GB,Winchester,51.19624,-1.57284,6,,,1004,,F♯,756.0,C,GF,,,Rung from chancel crossing,http://wpbells.org/AMPORT,W&P,SU299442,SP11 8BW,Fri,,,,II*,1093280,641050,0108,AMPORT,,
11869,Full circle ring,Ampthill,,,S Andrew,,Bedfordshire,England,GB,St Albans,52.03312,-0.48992,8,,,1546,,A♭,824.5,C,,,,,,Beds,TL036382,MK45 2EP,Thu (not always: check),,,,I,1114420,632254,0109,AMPTHILL,,
16426,Full circle ring,Ampton,,,S Peter,,Suffolk,England,GB,StEds+Ipswich,52.30702,0.73573,4,,,924,app,A,872.0,P,GF,,,Anticlockwise,https://www.suffolkbells.org.uk/towers/ampton1.php,Suff,TL866711,IP31 1NX,,1888,George Bullock,,I,1198006,633305,0110,AMPTON,,
13350,Full circle ring,Ancaster,,,S Martin,,Lincolnshire,England,GB,Lincoln,52.98045,-0.53790,5,,,1408,,F,,P,,,,,,LinDG,SK982435,NG32 3PW,Thu (not always: check),,,,I,1062422,621248,0111,ANCASTER,,
15738,Full circle ring,Andover,,,S Mary V,,Hampshire,England,GB,Winchester,51.21004,-1.47878,8,,,1701,,E,679.0,C,,T,,,http://wpbells.org/ANDOVER,W&P,SU365457,SP10 1NE,Tue,,,,II*,1264572,641051,0112,ANDOVER,,
11406,Full circle ring,Angersleigh,,,S Michael,,Somerset,England,GB,Bath+Wells,50.96209,-3.14203,6,,,1349,,A♭,821.0,C,,T,,,http://bath-wells.org/towerselect.php?DoveID=ANGERSLEIG,B&W,ST198186,TA3 7SY,,1996,Robert Parker,,II*,1177574,601557,0113,ANGERSLEIG,,
10695,Full circle ring,Angmering,,,S Margaret,,West Sussex,England,GB,Chichester,50.82890,-0.48626,6,,,1540,app,F,710.0,P,,,,,,SuxCA,TQ067043,BN16 4JS,"Thu (2nd, 4th, 5th)",1937,Whitechapel Bell Foundry Ltd,,II*,1027708,610006,0114,ANGMERING,,
15317,Full circle ring,Ansford,,,S Andrew,,Somerset,England,GB,Bath+Wells,51.09434,-2.51806,6,,,588,app,B,1014.0,P,GF,T,,,http://bath-wells.org/towerselect.php?DoveID=ANSFORD,B&W,ST638329,BA7 7LD,Tue,1992,Robert Parker,2010,II*,1307553,601061,0116,ANSFORD,,
13078,Full circle ring,Ansley,Church End,,S Lawrence,Church End,Warwickshire,England,GB,Coventry,52.53076,-1.57393,6,,,928,,G♯,814.0,C,,,,,http://warksbells.co.uk/ansley/,CovDG,SP290926,CV10 0QR,Tue,,,,II*,1365141,611060,0117,ANSLEY,,
11971,Full circle ring,Anstey,,,S George,,Hertfordshire,England,GB,St Albans,51.97676,0.04317,6,,,1008,app,G,776.5,P,GF,,,Rung from chancel; not well in tune,http://www.hcacr.org.uk/bstortford/anstey/index.html,HCA,TL404328,SG9 0BY,Tue,,,,I,1101870,632080,0118,ANSTEY HTS,,
13745,Full circle ring,Anstey,,,S Mary,,Leicestershire,England,GB,Leicester,52.67199,-1.18901,8,,,1180,,G,795.0,C,GF,,,,,LeiDG,SK549085,LE7 7AB,Wed 20:00,,,,II,1074664,619320,0119,ANSTEY LCS,52.67225,-1.18833
14765,Full circle ring,Ansty,,,S James,,Warwickshire,England,GB,Coventry,52.44970,-1.41341,4,u/r,,532,app,D,1130.5,P,,,,Unringable,http://warksbells.co.uk/ansty/,CovDG,SP399836,CV7 9HZ,,,,,II*,1034889,611062,6462,ANSTY,,
15783,Full circle ring,Antony,,,S James Gt,,Cornwall,England,GB,Truro,50.36927,-4.25369,6,,,1078,,A♭,,P,GF,,,,,ECBA,SX398545,PL11 3AQ,,,,,I,1140708,639266,0120,ANTONY,50.36970,-4.25365
14034,Full circle ring,Anwick,,,S Edith,,Lincolnshire,England,GB,Lincoln,53.04144,-0.33925,3,,,700,app,C,,P,GF,,,Tuning: 1-3 of 5,,,TF114506,NG34 9SS,,,,,I,1061829,621210,6255,ANWICK,,
13965,Full circle ring,Appleby,,,S Lawrence,,Cumbria,England,GB,Carlisle,54.57814,-2.49170,6,,,1049,,A♭,833.0,C,,T,,,http://carlisle-dgcbr.org.uk/towers/appleby/,CarDG,NY683204,CA16 6QW,Mon (alt),1989,,,I,1312067,607003,0122,APPLEBY CU,,
10816,Full circle ring,Appleby,,,S Bartholomew,,Lincolnshire,England,GB,Lincoln,53.62333,-0.56049,6,u/r,,1120,app,G,783.5,P,,,,Unringable,,LinDG,SE953150,DN15 0AH,,1921,Mears & Stainbank,,II*,1083728,621347,0123,APPLEBY LI,,
16424,Full circle ring,Appleby Magna,,,S Michael & All Angels,,Leicestershire,England,GB,Leicester,52.68545,-1.53555,6,,,1262,,F♯,750.0,C,,,,PN shared: 1st: Appleby Magna; exc 1st: Swepstone; anticlockwise,http://www.applebymagna.org.uk/appleby_history/misc_bells.htm,LeiDG,SK314098,DE12 7AA,Mon (1st),1974,John Taylor & Co,,II*,1177814,619342,0124,APPLEBYMAG,,
14776,Full circle ring,Appledore,,,S Mary,,Devon,England,GB,Exeter,51.05459,-4.19324,8,,,1230,,G,784.0,C,GF,,,,,,SS463306,EX39 1RJ,Mon,,,,II,1104753,615445,0125,APPLEDORED,,
13579,Full circle ring,Appledore,,,S Peter & S Paul,,Kent,England,GB,Canterbury,51.02958,0.79020,8,,,1359,,G,,P,,,,,http://kent.lovesguide.com/tower.php?id=5,KCA,TQ957292,TN26 2DA,Fri,,,,I,1071031,606262,0126,APPLEDOREK,,
15700,Full circle ring,Appleford,,,S Peter & S Paul,,Oxfordshire,England,GB,Oxford,51.63966,-1.23509,6,u/r,,896,app,A,,P,,,,Unringable,,ODG,SU530937,OX14 4QE,,,,,II,1052766,627299,0127,APPLEFORD,,
12653,Full circle ring,Appleton,,,S Laurence,,Oxfordshire,England,GB,Oxford,51.71084,-1.35904,10,,,1466,,E,670.5,C,,T,,,,ODG,SP443015,OX13 5JU,Fri,,,,II*,1048421,627300,0128,APPLETON,,
14832,Full circle ring,Appleton,,"Appleton, Workshop Campanile",Workshop Campanile (The Balscote Ring),,Oxfordshire,England,GB,PrivOwnership,51.71349,-1.35950,12,,2#+4#+5#+8#+9#,184,,B♭,1840.0,C,GF,,,One or more bells not hung : 6♭,,ODG,SP443018,OX13 5JJ,,,,,None,None,,6049,APPLETON B,,
12031,Full circle ring,Appleton le Moors,,,Christ Church,,North Yorkshire,England,GB,York,54.28320,-0.87272,6,u/r,,662,,B♭,930.0,P,,,,Unringable; Ellacombe apparatus - non-functioning,,YACR,SE734880,YO62 6TF,,,,,I,1173545,643462,0129,APPLETONLM,,
14572,Full circle ring,Apsley End,,,S Mary,,Hertfordshire,England,GB,St Albans,51.73465,-0.46611,6,,,1481,,F,706.2,C,,,,,http://www.hcacr.org.uk/western/aend/index.html,HCA,TL060051,HP3 9ST,Mon 20:00,8 Feb 2013,Whites of Appleton,2012,II,1067764,632048,0130,APSLEY END,,
11546,Full circle ring,Arborfield,,,S Bartholomew,,Berkshire,England,GB,Oxford,51.40432,-0.91194,6,,,1312,,G,767.5,C,,T,,,http://www.arborfieldbells.org.uk/,ODG,SU757678,RG2 9JA,Fri,1960,John Taylor & Co,,II,1135983,627479,0131,ARBORFIELD,51.40389,-0.91168
12211,Full circle ring,Ardeley,,,S Lawrence,,Hertfordshire,England,GB,St Albans,51.92744,-0.09913,6,,,1064,app,A♭,,P,GF,,,,http://www.hcacr.org.uk/northern/ardeley/index.html,HCA,TL308271,SG2 7AG,,1931,Mears & Stainbank,,I,1174231,632081,0132,ARDELEY,,
11854,Full circle ring,Ardingly,,,S Peter,,West Sussex,England,GB,Chichester,51.05214,-0.09006,6,,,879,,B♭,938.0,P,,,,,,SuxCA,TQ339298,RH17 6UW,Thu 20:00,2010,Whitechapel Bell Foundry Ltd,2010,I,1286656,610151,0133,ARDINGLY,,
10400,Full circle ring,Ardington,,,Holy Trinity,,Oxfordshire,England,GB,Oxford,51.59211,-1.37844,6,u/r,,725,,A,873.0,C,GF,,,Unringable,,ODG,SU431883,OX12 8QA,,,,,II*,1048189,627544,0134,ARDINGTON,,
13251,Full circle ring,Ardleigh,,,S Mary V,,Essex,England,GB,Chelmsford,51.92654,0.98554,8,,,1486,,F♯,723.0,C,,T,,ART Teaching Centre: Ardleigh Ringing School,,Essex,TM053295,CO7 7LE,,,,,II*,1112060,608486,0135,ARDLEIGH,,
10768,Full circle ring,Areley Kings,,,S Bartholomew,,Worcestershire,England,GB,Worcester,52.33685,-2.29200,6,,,927,,B♭,942.5,C,,T,,,http://www.wdcra.org.uk/areley.htm,WDA,SO802710,DY13 0TB,Thu 18:45,,,,II*,1209472,642261,0136,ARELEY KIN,,
13022,Full circle ring,Arkesden,,,S Mary V,,Essex,England,GB,Chelmsford,51.99012,0.15719,6,,,635,,G,,P,,,,,,Essex,TL482346,CB11 4HB,Wed 20:30,,,,II*,1170054,608546,0137,ARKESDEN,,
13336,Full circle ring,Arklow,,,S Saviour,,Wicklow,Island of Ireland,IE,(Ireland),52.79818,-6.16296,8,,,2539,,E,660.0,C,,,,No regular ringing,http://www.bellringingireland.org/index.php/st-saviour-arklow,Irish,T239734,Y14 XK15,,,,,Listed,16322001,,5910,ARKLOW,,
15794,Full circle ring,Arksey,,,All Saints,,South Yorkshire,England,GB,Sheffield,53.55578,-1.12709,8,,,1112,,F♯,749.0,C,,,,"Thu PN shared: Barnby Dun(1st,2nd,3rd); Arksey(4th,5th)",,YACR,SE579069,DN5 0SE,"Thu (4th, 5th) 18:00",,,,I,1191878,635142,0138,ARKSEY,,
12524,Full circle ring,Arlecdon,,,S Michael,,Cumbria,England,GB,Carlisle,54.56501,-3.46752,8,,,1603,,F♯,730.0,C,,,,Ringing discontinued while restoration work under way,http://carlisle-dgcbr.org.uk/towers/arlecdon/,CarDG,NY052198,CA14 4RT,,,Local labour/guild/assn,,II,1086721,607269,0139,ARLECDON,,
16001,Full circle ring,Arlesey,,,S Peter,,Bedfordshire,England,GB,St Albans,52.02347,-0.26452,6,,,1219,,G,783.5,C,,,,,,Beds,TL191375,SG15 6UN,Fri,1915,Webb and Bennett,,I,1113817,632398,0140,ARLESEY,,
14860,Full circle ring,Arley,,,S Wilfrid,Old Arley,Warwickshire,England,GB,Coventry,52.51271,-1.58431,6,,,796,,A,874.0,C,GF,,,,http://warksbells.co.uk/arley/,CovDG,SP283906,CV7 8RD,,,,,II*,1034773,611063,0141,ARLEY,,
15678,Full circle ring,Arlingham,,,S Mary V,,Gloucestershire,England,GB,Gloucester,51.79383,-2.42702,6,,,1344,app,G,786.0,P,,,,Anticlockwise,http://www.bagleybells.co.uk/towers/glos.htm#ARLINGHAM,G&B,SO706106,GL2 7JL,,,,,I,1340704,616179,0142,ARLINGHAM,,
12237,Full circle ring,Arlington,,,S James,,Devon,England,GB,Exeter,51.14672,-3.98461,6,,,1232,app,G♯,815.5,P,,,,,,,SS612404,EX31 4LP,,,,,II*,1106820,615476,0143,ARLINGTOND,51.14703,-3.98326
14570,Full circle ring,Arlington,,,S Pancras,,East Sussex,England,GB,Chichester,50.84616,0.19000,3,u/r,,784,app,,,P,GF,,,Unringable,,,TQ542074,BN26 6SE,,,,,I,1353287,610430,7616,ARLINGTONS,,
17778,Carillon,Armagh,,,Cath Ch of S Patrick,,Northern Ireland,Island of Ireland,GB,Armagh,54.35235,-6.65882,39,,,4830,,C,524.5,P,,T,,,http://www.britishcarillons.org/carillons-in-the-british-isles/armagh/,,H872456,BT61 7QX,,,,,A,9142,,0000,,,
10850,Full circle ring,Armidale,,Armidale Cath,Cath Ch of S Peter,,New South Wales,Australia,AU,AnglicanNonUK,-30.51499,151.66496,8,,,791,,B♭,932.5,C,,,T,,http://www.anzab.org.au/towers.php?tower=ARM,ANZAB,,,Thu 17:30,,,1996,,,,5992,ARMIDALE,,
16980,Full circle ring,Armitage,,,S John Bapt,,Staffordshire,England,GB,Lichfield,52.74597,-1.88725,6,,,524,,C,1038.0,C,GF,T,,,,LWAS,SK077164,WS15 4BA,Mon,,,,II*,1374295,620068,6173,ARMITAGE,52.74561,-1.88666
12478,Full circle ring,Armitage Bridge,,,S Paul,,West Yorkshire,England,GB,Leeds,53.61963,-1.79862,6,,,1084,,G,789.0,C,,T,,,,YACR,SE134136,HD4 7PN,Wed,1998,John Taylor & Co,,II,1238909,646031,0144,ARMITAGEBR,53.61905,-1.79843
13810,Full circle ring,Arncliffe,,,S Oswald,,North Yorkshire,England,GB,Leeds,54.14369,-2.10404,3,,,1680,app,F♯,733.5,P,GF,,,"Tuning: 1,2♭,3 of 3",,,SD933719,BD23 5QB,,1922,John Taylor & Co,,II,1132236,646034,6228,ARNCLIFFE,,
13993,Full circle ring,Arnesby,,,S Peter,,Leicestershire,England,GB,Leicester,52.52389,-1.09192,6,,,785,,A,870.0,C,,T,,,,LeiDG,SP617921,LE8 5UU,,,,,II*,1178306,619244,0145,ARNESBY,,
17152,Full circle ring,Arnold,,,S Mary,Nottingham,Nottinghamshire,England,GB,SouthwellNottm,53.00941,-1.12706,8,,,961,,A,897.0,C,,,,,,Swell,SK586461,NG5 8HG,Thu,,,,II*,1235987,638264,0146,ARNOLD,,
13492,Full circle ring,Arreton,,,S George,,Isle of Wight,England,GB,Portsmouth,50.67803,-1.24517,6,,,952,,A♭,,P,GF,,,,http://www.noyes.org.uk/iw/towers/arreton.htm,W&P,SZ534867,PO30 3AB,Mon,2001,Andrew Nicholson,,I,1209193,629122,0147,ARRETON,,
14160,Full circle ring,Arthingworth,,,S Andrew,,Northamptonshire,England,GB,Peterborough,52.42556,-0.89168,6,,,1216,,F♯,760.0,C,,,,,,PDG,SP754814,LE16 8NJ,Wed (alt),,,,II*,1067030,628037,0148,ARTHINGWOR,,
10180,Full circle ring,Arundel,Arundel Castle,Arundel Castle,Chapel of Our Lady,,West Sussex,England,GB,PrivOwnership,50.85616,-0.55430,3,,,672,,D,1156.0,C,,,,Ringing restricted (invitees only),,,TQ018072,BN18 9LH,,,,,I,1027926,,7650,ARUNDEL CA,50.85433,-0.55215
16691,Full circle ring,Arundel,,,S Nicholas,,West Sussex,England,GB,Chichester,50.85583,-0.55708,8,,,1544,,E,649.5,C,,T,,"Mon PN alternates: Lyminster:1st,3rd; Arundel: 2nd,4th",,SuxCA,TQ016072,BN18 9AT,"Mon (2nd, 4th) 19:00",1950,Gillett & Johnston,1950,I,1027914,610007,0149,ARUNDEL,,
15278,Full circle ring,Ascott under Wychwood,,Ascott u Wychwood,Holy Trinity,,Oxfordshire,England,GB,Oxford,51.86562,-1.56494,6,,,840,app,A,,P,GF,,,,,ODG,SP300186,OX7 6AZ,,,,,II*,1368158,627066,0150,ASCOTT UND,,
12376,Full circle ring,Asfordby,,,All Saints,,Leicestershire,England,GB,Leicester,52.76339,-0.95214,6,,,1389,,F,704.0,C,GF,T,,,,LeiDG,SK708189,LE14 3RU,Mon,1953,John Taylor & Co,,I,1360866,619059,0151,ASFORDBY,,
10530,Full circle ring,Asgarby,,,S Andrew,,Lincolnshire,England,GB,Lincoln,52.99421,-0.33843,4,u/r,,840,app,G♯,,P,GF,,,"Unringable; anticlockwise; tuning: 1,2,4,5 of 5; former 3/5 cracked ~1830 & 'lost'",,LinDG,TF116453,NG34 9QD,,,,,I,1061832,621211,0152,ASGARBY,,
16025,Full circle ring,Ash,,,Holy Trinity,Ash in Martock,Somerset,England,GB,Bath+Wells,50.98346,-2.75290,6,,,720,,B,979.0,C,,,,,http://bath-wells.org/towerselect.php?DoveID=ASH++++SOM,B&W,ST472207,TA12 6NS,Thu 20:00,2007,Robert Parker,,II,1057286,601163,0156,ASH    SOM,,
15998,Full circle ring,Ash,,,S Peter,,Surrey,England,GB,Guildford,51.24902,-0.71560,6,,,999,,A,871.0,C,,,,,,GDG,SU897507,GU12 6LX,Wed,,,,II*,1029647,617007,0153,ASH    SUR,,
13484,Full circle ring,Ash by Wrotham,,,S Peter & S Paul,Ash cum Ridley,Kent,England,GB,Rochester,51.35753,0.29899,6,,,991,,G♯,809.0,C,GF,T,,,http://sites.google.com/site/ashbellsmk2,KCA,TQ601645,TN15 7HD,Sat 09:00,2010,Whitechapel Bell Foundry Ltd,2010,I,1235106,631075,0155,ASH BY WRO,,
14608,Full circle ring,Ash next Sandwich,,,S Nicholas,,Kent,England,GB,Canterbury,51.27859,1.27869,10,,,2436,,E♭,610.0,C,,,,,http://kent.lovesguide.com/tower.php?id=324,KCA,TR287583,CT3 2EP,Fri,,,,I,1363280,606004,0157,ASH NEXT S,,
13609,Full circle ring,Ash Priors,,,Holy Trinity,,Somerset,England,GB,Bath+Wells,51.05835,-3.21186,6,,,1053,,G,798.0,C,GF,T,,,http://bath-wells.org/towerselect.php?DoveID=ASH+PRIORS,B&W,ST151294,TA4 3NF,,1991,Robert Parker,,II*,1344823,601583,0154,ASH PRIORS,,
16123,Full circle ring,Ashbocking,,,All Saints,,Suffolk,England,GB,StEds+Ipswich,52.14622,1.16936,6,,,1141,,A♭,826.0,C,GF,,,,http://www.suffolkbells.org.uk/towers/ashbocking1.php,Suff,TM169545,IP6 9LG,,1904,John Taylor & Co,,I,1352127,633003,0158,ASHBOCKING,,
15741,Full circle ring,Ashbourne,,,S Oswald,,Derbyshire,England,GB,Derby,53.01494,-1.73871,8,,,1505,,F,689.5,C,GF,,,Rung from chancel crossing; tuned to old concert pitch (A=454Hz),,DDA,SK176464,DE6 1AN,Wed,,,,I,1207715,612186,0159,ASHBOURNE,,
11897,Full circle ring,Ashbrittle,,,S John Bapt,,Somerset,England,GB,Bath+Wells,50.98370,-3.35194,6,,,917,,G,790.0,C,GF,,,,http://bath-wells.org/towerselect.php?DoveID=ASHBRITTLE,B&W,ST051213,TA21 0LE,,1935,John Taylor & Co,1935,II*,1059880,601581,0160,ASHBRITTLE,,
10635,Full circle ring,Ashburnham,,,S Peter,,East Sussex,England,GB,Chichester,50.90565,0.40142,6,,,1101,,A♭,813.0,C,GF,T,,,,SuxCA,TQ689145,TN33 9NE,Thu 19:00,,,,I,1044264,610331,0161,ASHBURNHAM,50.90147,0.40812
11954,Full circle ring,Ashburton,,,S Andrew,,Devon,England,GB,Exeter,50.51426,-3.75728,8,,,2386,,E,672.0,C,,,,"Former 3rd is on floor of Exeter, S Petrock",,DevAs,SX755697,TQ13 7DT,Wed,,,,I,1201040,615292,0162,ASHBURTON,,
17017,Full circle ring,Ashbury,,,S Mary V,,Oxfordshire,England,GB,Oxford,51.56246,-1.61889,6,,,1512,app,F♯,722.0,P,,,,PN alternates with Bishopstone; anticlockwise,,ODG,SU265849,SN6 8LZ,"Thu (1st, 3rd)",,,,I,1048770,627497,0163,ASHBURY OX,51.56291,-1.61937
13318,Full circle ring,Ashby de la Launde,,,S Hybald,,Lincolnshire,England,GB,Lincoln,53.07953,-0.42654,5,u/r,,828,,A,903.0,C,GF,,,Unringable,,LinDG,TF054547,LN4 3JQ,,,,,II*,1307159,621212,0166,ASHBY DE L,,
10461,Full circle ring,Ashby de la Zouch,,,S Helen,,Leicestershire,England,GB,Leicester,52.74729,-1.46711,10,,,2432,,E♭,606.0,C,GF,,,,,LeiDG,SK360167,LE65 1AA,Wed 20:00,,,,I,1188344,619344,0167,ASHBY DE Z,,
10350,Full circle ring,Ashby Folville,,,S Mary,,Leicestershire,England,GB,Leicester,52.70099,-0.95571,8,,,1374,,G,768.0,C,GF,,,,,LeiDG,SK706119,LE14 2TA,,,,,I,1061267,619148,0164,ASHBY FOLV,,
16462,Full circle ring,Ashby Magna,,,S Mary,,Leicestershire,England,GB,Leicester,52.50928,-1.17108,3,,,850,,B♭,931.0,C,GF,,,,,,SP563904,LE17 5ND,,,,,II*,1061550,619246,6677,ASHBY MAGN,,
14035,Full circle ring,Ashby Parva,,,S Peter,,Leicestershire,England,GB,Leicester,52.49300,-1.22737,3,,,558,,B,996.0,C,GF,,,Ringing temporarily suspended pending repairs; tuning: 1-3 of 4,,,SP525886,LE17 5HS,,,,,II*,1209141,619259,6788,ASHBY PARV,,
17065,Full circle ring,Ashby St Ledgers,,,Blessed Virgin Mary & S Leodegarius,,Northamptonshire,England,GB,Peterborough,52.30892,-1.16073,4,,,1344,app,F,716.0,P,GF,,,"Tuning: 1,2,3♯,4 of 4",,PDG,SP573681,CV23 8UN,,,,,I,1076499,628076,0165,ASHBY STLE,,
14753,Full circle ring,Ashchurch,,,S Nicholas,,Gloucestershire,England,GB,Gloucester,51.99910,-2.10704,8,,,1312,,F♯,731.0,C,,T,,,http://www.bagleybells.co.uk/towers/glos.htm#ASHCHURCH,G&B,SO927334,GL20 8JU,Fri,,,,II*,1153103,616205,0168,ASHCHURCH,,
13239,Full circle ring,Ashcombe,,,S Nectan,,Devon,England,GB,Exeter,50.60555,-3.53869,3,u/r,,1008,app,A,840.0,P,GF,,,Derelict; unringable; ropes fall in a straight line; No stays or sliders; three-quarter wheels,,,SX912795,EX7 0QE,,,,,I,1308702,615157,6929,ASHCOMBE,,
12065,Full circle ring,Ashcott,,,All Saints,,Somerset,England,GB,Bath+Wells,51.13082,-2.80593,6,,,1365,,F,690.5,C,GF,,,,http://bath-wells.org/towerselect.php?DoveID=ASHCOTT,B&W,ST437371,TA7 9QZ,Fri,1949,John Taylor & Co,1949,II*,1058957,601119,0169,ASHCOTT,,
16053,Full circle ring,Ashdon,,,All Saints,,Essex,England,GB,Chelmsford,52.04943,0.30399,8,,,1733,,F,696.0,P,,T,,,,Essex,TL580415,CB10 2HG,Mon,,,,I,1170162,608564,0170,ASHDON,,
17116,Full circle ring,Ashen,,,S Augustine,,Essex,England,GB,Chelmsford,52.05169,0.54677,3,,,1002,,B♭,924.0,P,GF,,,Tuning: 1-3 of 4,,,TL747423,CO10 8JN,,1934,John Taylor & Co,,I,1123044,608393,6444,ASHEN,,
13399,Full circle ring,Ashendon,,,S Mary,,Buckinghamshire,England,GB,Oxford,51.82204,-0.97855,3,u/r,,560,app,B,,P,GF,,,"One bell (or more) cracked or broken; unringable; Restoration work under way; No stays or sliders on 1,2",,,SP704142,HP18 0HX,,,,,I,1118370,627681,6930,ASHENDON,,
15743,Full circle ring,Ashford,,,S Mary V,,Kent,England,GB,Canterbury,51.14864,0.87281,10,,,2430,,E♭,,P,,,,The ringing bells form part of an 11-bell chime,http://kent.lovesguide.com/tower.php?id=7,KCA,TR010427,TN23 1QG,Tue (with exceptions),,,,I,1071114,606202,0171,ASHFORD  K,51.14783,0.87328
14381,Full circle ring,Ashford,,,S Matthew,,Surrey,England,GB,London,51.43235,-0.45928,5,,,588,,B♭,,P,,,,4th (5-1-2) is heavier than tenor,,Middx,TQ072714,TW15 2PL,Thu,1980,Whitechapel Bell Foundry Ltd,1980,II,1187026,623271,0172,ASHFORD  M,,
15935,Full circle ring,Ashford in the Water,,,Holy Trinity,,Derbyshire,England,GB,Derby,53.22413,-1.70949,6,,,678,,B,979.0,C,GF,,,,,DDA,SK194697,DE45 1QB,Tue,,,,II,1158598,612024,0173,ASHFORD IN,,
15024,Full circle ring,Ashill,,,S Nicholas,,Norfolk,England,GB,Norwich,52.60285,0.78053,8,,,1091,,F♯,758.0,P,,T,T,,,NDA,TF883041,IP25 7AW,Thu,1996,Whites of Appleton,1996,I,1342618,626463,0174,ASHILL NOR,,
13773,Full circle ring,Ashill,,,Blessed Virgin Mary,,Somerset,England,GB,Bath+Wells,50.95076,-2.96789,6,,,1317,,F♯,729.0,C,,,,,http://bath-wells.org/towerselect.php?DoveID=ASHILL+SOM,B&W,ST321172,TA19 9ND,Fri,1992,Robert Parker,,II*,1057100,601490,0175,ASHILL SOM,,
12427,Full circle ring,Ashleworth,,,S Bartholomew,,Gloucestershire,England,GB,Gloucester,51.92495,-2.26550,6,,,1736,app,E,672.0,P,GF,,,,http://www.bagleybells.co.uk/towers/glos.htm#ASHLEWORTH,G&B,SO818251,GL19 4JA,,1977,,,I,1340301,616133,0176,ASHLEWORTH,,
10963,Full circle ring,Ashley,,,S James,,Gloucestershire,England,GB,Bristol,51.65118,-2.10018,3,u/r,,336,app,F,1411.5,P,GF,,,Unringable; ropes fall in a straight line; No stays or sliders; tuning: 1-3 of 4,,,ST931947,GL8 8SX,,,,,II*,1341134,605190,6673,ASHLEY  GL,,
12989,Full circle ring,Ashley,,,S Mary V,,Northamptonshire,England,GB,Peterborough,52.51123,-0.83147,5,,,792,,A,876.0,C,GF,,,,,PDG,SP794910,LE16 8HF,Mon,2001,Hayward Mills Associates,,I,1052127,628228,0177,ASHLEY  NH,,
13902,Full circle ring,Ashover,,,All Saints,,Derbyshire,England,GB,Derby,53.16400,-1.48015,10,,,2026,,E,656.0,C,,T,,,,DDA,SK348631,S45 0AB,Tue,,,,I,1291953,612111,0178,ASHOVER,,
11516,Full circle ring,Ashow,,,Assumption of Our Lady,,Warwickshire,England,GB,Coventry,52.32910,-1.54331,4,,,672,app,B,995.5,P,GF,,,No regular ringing; only limited ringing allowed,http://warksbells.co.uk/ashow/,CovDG,SP312702,CV8 2LE,,,,,I,1035266,611042,6463,ASHOW,,
12205,Full circle ring,Ashreigney,,,S James,,Devon,England,GB,Exeter,50.90575,-3.95177,6,,,1019,,G,784.0,P,GF,,,,,DevAs,SS628136,EX18 7LH,Mon,1976,Arthur Fidler,,II*,1104609,615427,0179,ASHREIGNEY,,
15485,Full circle ring,Ashtead,,,S Giles,,Surrey,England,GB,Guildford,51.30861,-0.29024,8,,,1454,,F,693.0,C,,T,,,http://tinyurl.com/ashtead,GDG;Surr,TQ192579,KT21 1EJ,Thu 20:00,2007,Andrew Nicholson,,II*,1028685,617170,0180,ASHTEAD,51.30949,-0.29353
13055,Full circle ring,Ashton,,,S John Bapt,,Devon,England,GB,Exeter,50.65055,-3.61950,6,u/r,,1120,app,A♭,836.0,P,GF,,,"Unringable; tuning: 1♭,2-6 of 6",,,SX856846,EX6 7QR,,,,,I,1097856,615158,0181,ASHTON  DE,,
14066,Full circle ring,Ashton,,,S Michael & All Angels,,Northamptonshire,England,GB,Peterborough,52.14278,-0.88337,5,,,801,,C,1019.0,C,,T,,Anticlockwise; tuning: 1-5 of 6,,PDG,SP765499,NN7 2JJ,,1931,John Taylor & Co,1931,II*,1190600,628128,0182,ASHTON  NH,,
16297,Full circle ring,Ashton Keynes,,,Holy Cross,,Wiltshire,England,GB,Bristol,51.64829,-1.94132,6,,,1438,,F,691.0,C,,T,,PN shared: Ashton Keynes; Castle Eaton,,G&B,SU041943,SN6 6NY,Thu (alt: check),,,,I,1023045,605191,0183,ASHTON KEY,,
10526,Full circle ring,Ashton under Hill,,Ashton u Hill,S Barbara,,Worcestershire,England,GB,Worcester,52.03777,-2.00637,6,,,828,,A,875.0,C,,,,,http://www.wdcra.org.uk/ashton.htm,G&B,SO996377,WR11 7SX,"Tue (3rd, 4th, 5th)",,,,II*,1081663,642290,0184,ASHTON UH,,
10838,Full circle ring,Ashton under Lyne,,"Ashton u Lyne, S Michael",S Michael & All Angels,,Greater Manchester,England,GB,Manchester,53.48754,-2.09009,12,,2#,2881,,D,,P,,,,Only limited ringing allowed,http://www.ashtonstm.co.uk/,Lancs,SJ941989,OL6 6XJ,,,,,I,1162800,624024,0185,ASHTON ULM,,
15994,Full circle ring,Ashton under Lyne,,"Ashton u Lyne, S Peter",S Peter,,Greater Manchester,England,GB,Manchester,53.48390,-2.10609,8,,,2111,,E,642.5,C,,,,,,Lancs,SJ930985,OL7 0BQ,,1936,John Taylor & Co,1936,II*,1067994,624026,0186,ASHTON ULP,,
10368,Full circle ring,Ashwater,,,S Peter ad Vincula,,Devon,England,GB,Exeter,50.73419,-4.28746,6,,,981,,G,803.0,C,GF,,,,,DevAs,SX386952,EX21 5EY,,,,,I,1164568,615235,0187,ASHWATER,,
12848,Full circle ring,Ashwell,,,S Mary V,,Hertfordshire,England,GB,St Albans,52.04195,-0.15425,6,,,2110,,F,675.0,P,,T,,,http://www.hcacr.org.uk/northern/ashwell/index.html,HCA,TL266397,SG7 5LU,Thu,1997,Local labour/guild/assn,,I,1102715,632082,0188,ASHWELL HT,,
13296,Full circle ring,Ashwell,,,S Mary,,Rutland,England,GB,Peterborough,52.71444,-0.72011,6,u/r,,1092,app,G,,P,GF,,,Unringable,,PDG,SK865137,LE15 7LP,,,,,I,1073268,628346,0189,ASHWELL LC,,
11789,Full circle ring,Ashwellthorpe,,,All Saints,Ashwelthorpe,Norfolk,England,GB,Norwich,52.53463,1.16375,5,u/r,,896,app,A♭,,P,,,,Unringable,,NDA,TM146976,NR16 1EZ,,,,,I,1170251,626305,0190,ASHWELLTHO,,
14171,Full circle ring,Ashwick,,,S James,,Somerset,England,GB,Bath+Wells,51.23379,-2.52132,6,,,784,app,B♭,949.0,P,GF,,,,http://bath-wells.org/towerselect.php?DoveID=ASHWICK,B&W,ST636484,BA3 5BE,,1968,Whitechapel Bell Foundry Ltd,,I,1058471,601210,0191,ASHWICK,,
15149,Full circle ring,Askerswell,,,S Michael,,Dorset,England,GB,Salisbury,50.73099,-2.66760,6,,,975,,G♯,831.0,C,,T,,,http://www.sdgr.org.uk/branches/west-dorset/tower-6,Salis,SY529925,DT2 9EJ,Thu,1960,John Taylor & Co,1960,II*,1213455,634072,0192,ASKERSWELL,,
13992,Full circle ring,Askrigg,,,S Oswald,,North Yorkshire,England,GB,Leeds,54.31470,-2.08218,6,,,1173,,G♯,,P,,,,,http://www.riponandleedsbells.org.uk/askrigg.htm,YACR,SD947910,DL8 3JW,Mon 18:30,1991,Eayre & Smith,,I,1301613,646035,0193,ASKRIGG,,
11506,Full circle ring,Aslackby,,,S James,,Lincolnshire,England,GB,Lincoln,52.86012,-0.38943,3,u/r,,784,app,A,867.5,P,GF,T,,Unringable; anticlockwise; not well in tune,,,TF085303,NG34 0HJ,,,,,I,1062757,621003,6238,ASLACKBY,,
17024,Full circle ring,Aslacton,,,S Michael,,Norfolk,England,GB,Norwich,52.47516,1.17350,5,,,840,app,A♭,,P,GF,,,Anticlockwise; round tower,,NDA,TM156910,NR15 2JN,,1978,Local labour/guild/assn,1614,I,1170344,626244,0194,ASLACTON,,
12093,Full circle ring,Aspatria,,,S Kentigern,,Cumbria,England,GB,Carlisle,54.76483,-3.32717,8,,,1520,,F,713.0,C,,T,,,http://carlisle-dgcbr.org.uk/towers/aspatria/,CarDG,NY147419,CA7 3AL,Thu,,,,II*,1234861,607344,0195,ASPATRIA,,
10505,Full circle ring,Aspenden,,,S Mary,,Hertfordshire,England,GB,St Albans,51.93756,-0.03252,8,,,1099,,F♯,736.5,P,,T,,,http://www.hcacr.org.uk/eastern/aspenden/index.html,HCA,TL353283,SG9 9PJ,Wed,,,,I,1347966,632083,0196,ASPENDEN,,
10223,Full circle ring,Aspley Guise,,,S Botolph,,Bedfordshire,England,GB,St Albans,52.01664,-0.62820,6,,,1131,,G♯,841.0,C,,,,,,Beds,SP942362,MK17 8HN,Mon,1963,John Taylor & Co,,II*,1312070,632255,0197,ASPLEY GUI,,
16240,Full circle ring,Assington,,,S Edmund K&M,,Suffolk,England,GB,StEds+Ipswich,52.01376,0.81921,6,,,1176,app,G♯,,P,,,,Ringing prohibited,http://www.suffolkbells.org.uk/towers/assington1.html,Suff,TL935387,CO10 5LG,,,,,I,1036733,633284,0199,ASSINGTON,,
12924,Full circle ring,Astbury,,,S Mary,,Cheshire,England,GB,Chester,53.15078,-2.23155,8,,,1364,,G♯,807.0,C,,,,,,CheDG,SJ846615,CW12 4RQ,Wed,,,,I,1138740,609223,0200,ASTBURY,,
12143,Full circle ring,Asthall,,,S Nicholas,,Oxfordshire,England,GB,Oxford,51.80038,-1.58519,6,,,682,,B,970.0,P,,,,,,ODG,SP287113,OX18 4HW,,2005,Andrew Nicholson,,II*,1053514,627233,6822,ASTHALL,,
15505,Full circle ring,Astley,,,S Mary V,,Warwickshire,England,GB,Coventry,52.50190,-1.54345,5,,,961,,F♯,750.0,C,,,,Tuning: 1-5 of 6,http://warksbells.co.uk/astley/,CovDG,SP310894,CV10 7QN,,,,,I,1184853,611065,0201,ASTLEY WAR,,
15965,Full circle ring,Astley,,,S Peter,,Worcestershire,England,GB,Worcester,52.30618,-2.31309,6,,,1568,app,F♯,747.0,P,,T,,,http://www.wdcra.org.uk/astley.htm,WDA,SO787676,DY13 0RJ,,1992,Eayre & Smith,,I,1082676,642262,0202,ASTLEY WOR,,
15118,Full circle ring,Aston,,,S Mary,,Hertfordshire,England,GB,St Albans,51.88751,-0.15378,6,,,1278,,G,782.0,C,,T,,,http://www.hcacr.org.uk/northern/aston/index.html,HCA,TL271226,SG2 7EJ,Thu,,,,II*,1101433,632209,0203,ASTON  HER,,
12884,Full circle ring,Aston,,,S James,Bampton Aston,Oxfordshire,England,GB,Oxford,51.72514,-1.50618,6,,,1411,,G,765.0,C,GF,,,,,ODG,SP342030,OX18 2DU,Wed,1992,Whites of Appleton,1992,II,1052435,627234,0204,ASTON  OXO,,
11818,Full circle ring,Aston,,,All Saints,Aston cum Aughton,South Yorkshire,England,GB,Sheffield,53.36205,-1.29811,3,u/r,,1066,,A♭,854.0,C,,,,Unringable; tuning: 1-3 of 4,,,SK468852,S26 2EE,,,,,I,1151917,635074,6931,ASTON  SYK,,
12342,Full circle ring,Aston Abbotts,,,S James Gt,Aston Abbots,Buckinghamshire,England,GB,Oxford,51.87428,-0.77066,6,,,755,,G,806.0,C,,,,,,ODG,SP847202,HP22 4NB,Thu,1929,John Taylor & Co,1929,II*,1116023,627729,0206,ASTON ABBO,,
13181,Full circle ring,Aston Botterell,,,S Michael & All Angels,,Shropshire,England,GB,Hereford,52.45374,-2.54233,3,,,784,app,B♭,914.5,P,GF,,,,,,SO632841,WV16 6QX,,,,,II*,1053203,618266,6896,ASTON BOTT,,
17054,Full circle ring,Aston Cantlow,,,S John Bapt,,Warwickshire,England,GB,Coventry,52.23677,-1.80006,6,,,1582,,F,690.0,C,,,,,http://warksbells.co.uk/aston-cantlow/,CovDG,SP137598,B95 6JB,Wed,1957,John Taylor & Co,,I,1024581,611156,0207,ASTON CANT,,
17117,Full circle ring,Aston Clinton,,,S Michael & All Angels,,Buckinghamshire,England,GB,Oxford,51.79929,-0.72641,10,,,1270,,F♯,740.5,C,,T,,CC recognised Ringing Centre,,ODG,SP879119,HP22 5HJ,Fri,2003,Whites of Appleton,2003,II*,1124228,627776,0208,ASTON CLIN,,
10896,Full circle ring,Aston Ingham,,,S John Bapt,,Herefordshire,England,GB,Hereford,51.90975,-2.46152,6,,,605,,B,971.0,C,GF,,,,http://www.bagleybells.co.uk/towers/herfs.htm#ASTON_INGH,HDG,SO683235,HR9 7LS,,1950,Gillett & Johnston,1950,II*,1099646,618222,0209,ASTON INGH,,
10503,Full circle ring,Aston on Trent,,,All Saints,,Derbyshire,England,GB,Derby,52.86008,-1.38536,6,,,1107,,F♯,741.0,C,,,,,,DDA,SK414293,DE72 2AZ,Mon,,,,I,1281625,612311,0212,ASTON ON T,,
12935,Full circle ring,Aston Rowant,,,S Peter & S Paul,,Oxfordshire,England,GB,Oxford,51.68518,-0.95017,6,,,1448,,F♯,,P,GF,,,,,ODG,SU726990,OX49 5SR,Tue,,,,II*,1368878,627005,0210,ASTON ROWA,,
14174,Full circle ring,Aston Tirrold,,,S Michael,,Oxfordshire,England,GB,Oxford,51.57076,-1.19780,6,,,1311,,F♯,,P,,,,,,ODG,SU556860,OX11 9DJ,Wed,1980,,,II*,1286159,627523,0211,ASTON TIRR,,
15490,Full circle ring,Astwood,,,S Peter,,Buckinghamshire,England,GB,Oxford,52.11651,-0.61338,3,u/r,,1120,app,G,777.5,P,GF,,,Church closed; unringable,,,SP950473,MK16 9JS,,,,,II*,1289631,627753,6933,ASTWOOD,,
10347,Full circle ring,Aswarby,,,S Denys,,Lincolnshire,England,GB,Lincoln,52.94592,-0.41338,3,u/r,,784,app,A,,P,,,,Unringable; tuning: 1-3 of 4,,,TF067399,NG34 8SB,,,,,I,1360619,621213,6256,ASWARBY,,
13475,Full circle ring,Atcham,,,S Eata,,Shropshire,England,GB,Lichfield,52.67855,-2.68061,6,,,1089,,G,778.0,C,,T,,,http://www.sacbr.org.uk/Towers/Atcham/Atcham.html,Salop,SJ540092,SY5 6QG,Thu,2005,John Taylor & Co,2005,I,1176664,620550,0213,ATCHAM,,
13392,Full circle ring,Atherington,,,S Mary,,Devon,England,GB,Exeter,50.99015,-4.00883,6,,,1241,,F,718.5,C,GF,,,,,,SS591231,EX37 9HU,,,,,I,1106857,615400,0214,ATHERINGTO,,
12926,Full circle ring,Atherstone,,,S Mary,,Warwickshire,England,GB,Coventry,52.57862,-1.54617,8,,,930,,A,871.0,C,,T,,Octagonal tower,http://warksbells.co.uk/atherstone/,CovDG,SP308979,CV9 1EY,Wed (not always: check),,,,II*,1365164,611066,0215,ATHERSTON2,,
14361,Full circle ring,Atlanta,,,S Luke,,Georgia,United States of America,US,AnglicanNonUK,33.76628,-84.38504,10,,,1498,,F,,P,,,,,http://www.towerbells.org/data/GAATLSTL.HTM,NAG,,30308,Thu (with additions) 18:30,2000,Eayre & Smith,,,,,6131,ATLANTA,,
14213,Full circle ring,Attenborough,,,S Mary V,,Nottinghamshire,England,GB,SouthwellNottm,52.90387,-1.23049,8,,,1253,,F♯,754.0,C,,T,,,,Swell,SK518343,NG9 6AS,Fri,,,,I,1263869,638160,0216,ATTENBOROU,,
15851,Full circle ring,Attleborough,,,Assumption of BVM,,Norfolk,England,GB,Norwich,52.51789,1.01847,6,,,1418,,E,667.0,C,,,,,,NDA,TM048953,NR17 2AW,Tue,,,,I,1342445,626433,0217,ATTLEBOROU,,
12484,Full circle ring,Atworth,,,S Michael & All Angels,,Wiltshire,England,GB,Salisbury,51.39096,-2.20420,3,u/r,,1120,app,G,800.0,P,GF,,,One bell (or more) cracked or broken; unringable; detached tower,,,ST858657,SN12 8JA,,,,,II*,1250853,634494,7504,ATWORTH,,
15681,Full circle ring,Aubourn,,,The Clock Tower,,Lincolnshire,England,GB,Lincoln,53.15180,-0.62640,3,,,905,,A,867.5,C,,T,,Former church of S Peter (Anglican); building owned by Parish Council,,,SK919625,LN5 9EA,,,,,II,1360538,,6257,AUBOURN,,
16624,Full circle ring,Auckland,,,S Matthew in the City,,North Island,New Zealand,NZ,AnglicanNonUK,-36.85014,174.76137,8,,,2252,,E♭,640.0,C,,,,,http://www.anzab.org.au/towers.php?tower=AUC,ANZAB,,,Tue,,,1971,,,,5950,AUCKLANDNZ,,
12137,Full circle ring,Audlem,,,S James Gt,,Cheshire,England,GB,Chester,52.98914,-2.50809,6,,,1008,app,A,,P,,,,,,CheDG,SJ659436,CW3 0AW,Thu,,,,I,1136872,609325,0218,AUDLEM,,
15909,Full circle ring,Audley,,,S James Gt,,Staffordshire,England,GB,Lichfield,53.05481,-2.30160,8,,,1698,,F♯,732.0,C,,,,,,NSA,SJ798508,ST7 8DQ,Tue,,,,II*,1038613,620316,0219,AUDLEY,,
15913,Full circle ring,Aughton,,"Aughton, ChCh",Christ Church,,Lancashire,England,GB,Liverpool,53.55865,-2.90474,8,,,1580,,F,692.0,C,,T,,,,Lancs,SD401072,L39 4TF,Mon,1938,John Taylor & Co,,II,1073131,622142,0220,AUGHTON CH,53.55835,-2.90381
16269,Full circle ring,Aughton,,"Aughton, S Michael",S Michael,,Lancashire,England,GB,Liverpool,53.54189,-2.91977,6,,,618,,C♯,1116.0,P,GF,T,,Rung from aisle : north,,Lancs,SD391054,L39 6TQ,Mon (exc 1st),1935,Gillett & Johnston,1935,I,1361837,622143,0221,AUGHTON SM,,
16381,Full circle ring,Augusta,,,The Good Shepherd,,Georgia,United States of America,US,AnglicanNonUK,33.47627,-82.01464,8,,,1257,,G,772.7,C,GF,,,Detached tower,,NAG,,30904,,,,,,,,7377,AUGUSTA,,
11391,Full circle ring,Ault Hucknall,,,S John Bapt,,Derbyshire,England,GB,Derby,53.18216,-1.30197,8,,,847,,G♯,848.0,C,,,,,,DDA,SK467652,S44 5QH,,,,,I,1109001,612050,0222,AULT HUCKN,,
15892,Full circle ring,Aunsby,,,S Thomas of Canterbury,,Lincolnshire,England,GB,Lincoln,52.93676,-0.44717,3,u/r,,1120,app,G♯,807.5,P,,,,One bell (or more) cracked or broken; unringable; tuning: 1-3 of 5,,,TF044388,NG34 8TA,,,,,II*,1061790,621214,6258,AUNSBY,,
11258,Full circle ring,Austrey,,,S Nicholas,,Warwickshire,England,GB,Birmingham,52.65345,-1.56434,5,,,1512,app,F,698.0,P,,,,Anticlockwise,http://warksbells.co.uk/austrey/,SMB,SK295062,CV9 3EE,Wed (1st),,,,II*,1365184,602135,0223,AUSTREY,,
14799,Full circle ring,Avebury,,,S James,,Wiltshire,England,GB,Salisbury,51.42861,-1.85804,8,,,524,,D,1175.5,C,,T,,,http://www.sdgr.org.uk/branches/calne/tower-7,Salis,SU099699,SN8 1RF,Tue,,,,I,1193084,634555,0224,AVEBURY,,
13359,Full circle ring,Avening,,,Holy Cross,,Gloucestershire,England,GB,Gloucester,51.68060,-2.17549,6,,,1303,,F♯,723.0,C,,,,,http://www.bagleybells.co.uk/towers/glos.htm#AVENING,G&B,ST879979,GL8 8NL,Tue,,,,I,1341564,616384,0225,AVENING,,
14142,Full circle ring,Averham,,,S Michael & All Angels,,Nottinghamshire,England,GB,SouthwellNottm,53.08101,-0.85500,6,,,1373,,F,700.0,C,GF,,,,,Swell,SK767543,NG23 5RB,Mon,2013,John Taylor & Co,2013,I,1046008,638048,0226,AVERHAM,,
15290,Full circle ring,Avington,,,S Mary,,Hampshire,England,GB,Winchester,51.08711,-1.24071,5,,,700,,B♭,939.0,C,,,,,http://wpbells.org/AVINGTON,W&P,SU532322,SO21 1DB,,,,,I,1350483,641005,7656,AVINGTON,,
12778,Full circle ring,Avon Dassett,,,S John Bapt,,Warwickshire,England,GB,ChConsvnTrust,52.14866,-1.40023,5,,,784,app,B,989.5,P,,,,Ringing temporarily suspended - rotten floor under bells; No mains electricity in tower,http://warksbells.co.uk/avon-dassett/,CovDG,SP411502,CV47 2AH,,,,,II*,1024250,611163,0227,AVON DASSE,,
10485,Full circle ring,Awbridge,,"Awbridge, Clock House Bells",Clock House Bells,,Hampshire,England,GB,PrivOwnership,51.01006,-1.54570,10,,,366,,E,1307.0,C,GF,,,,http://www.clockhousebells.co.uk/,W&P,SU319235,SO51 0HN,PN: by arrangement,2008,(The owner),2008,None,None,,7651,AWBRIDGE,,
13190,Full circle ring,Awliscombe,,,S Michael & All Angels,,Devon,England,GB,Exeter,50.80946,-3.23095,6,,,2184,,F,,P,,,,PN alternates with Buckerell,,GDR,ST133018,EX14 3PL,Tue (alt),,,,I,1098097,615118,0228,AWLISCOMBE,,
16342,Full circle ring,Awre,,,S Andrew,,Gloucestershire,England,GB,Gloucester,51.77035,-2.42375,6,,,1141,,G,783.0,C,GF,T,,,http://www.bagleybells.co.uk/towers/glos.htm#AWRE,G&B,SO708080,GL14 1EW,Fri,,,,I,1186370,616049,0229,AWRE,,
16482,Full circle ring,Axbridge,,,S John Bapt,,Somerset,England,GB,Bath+Wells,51.28773,-2.81653,6,,,2226,,E♭,640.0,C,,,,,http://bath-wells.org/towerselect.php?DoveID=AXBRIDGE,B&W,ST431546,BS26 2BX,Mon 20:00,,,,I,1173117,601003,0230,AXBRIDGE,,
16675,Full circle ring,Axminster,,,S Mary,,Devon,England,GB,Exeter,50.78170,-2.99934,10,,,2619,,C♯,,P,,T,,,http://groups.exeter.ac.uk/gdr/east.html,GDR,SY296984,EX13 5AJ,Wed (alt: check),1986,,,II*,1333520,615119,0231,AXMINSTER,,
14512,Full circle ring,Axmouth,,,S Michael,,Devon,England,GB,Exeter,50.71418,-3.05480,3,u/r,,896,app,B♭,923.5,P,GF,,,An exceptionally unusual and interesting bellframe (JGMS); unringable; tuning: 1-3 of 5,,,SY256910,EX12 4AE,,,,,I,1098593,615121,6934,AXMOUTH,,
14077,Full circle ring,Aycliffe,,,S Andrew,,Durham,England,GB,Durham,54.59385,-1.56367,3,,,401,,E♭,1223.0,C,,,,Access to ringing room via a vertical ladder,,,NZ282221,DL5 6JP,,1931,Gillett & Johnston,1931,I,1322806,613265,6052,AYCLIFFE,,
13311,Full circle ring,Aylesbeare,,,Blessed Virgin Mary,,Devon,England,GB,Exeter,50.71922,-3.36471,6,,,1288,,G,,P,GF,,,,,GDR,SY037919,EX5 2BU,Thu (with exceptions),,,,II*,1328734,615003,0232,AYLESBEARE,,
15375,Full circle ring,Aylesbury,,,S Mary,,Buckinghamshire,England,GB,Oxford,51.81786,-0.81591,8,,,2420,,E♭,,P,,,,,http://aylesburystmary.org.uk/bell-ringers/,ODG,SP817139,HP20 2QZ,Tue,1983,Eayre & Smith,,I,1160522,627594,0233,AYLESBURY,,
16726,Full circle ring,Aylesford,,,S Peter & S Paul,,Kent,England,GB,Rochester,51.30407,0.47927,8,,,1519,,F,685.5,P,,T,,,http://kent.lovesguide.com/tower.php?id=8,KCA,TQ729590,ME20 7AY,Tue,,,,I,1337029,631159,0234,AYLESFORD,,
16792,Full circle ring,Aylsham,,,S Michael,,Norfolk,England,GB,Norwich,52.79603,1.25038,10,,,1938,,E♭,638.0,C,,T,,"One bell (or more) cracked or broken - 1,3,4,6,7,8,9; ringing discontinued while restoration work under way",,NDA,TG192270,NR11 6EU,,2021,Andrew Nicholson,,I,1051583,626063,0236,AYLSHAM,52.79578,1.25090
12059,Full circle ring,Aymestrey,,,S John Bapt & S Alkmund,,Herefordshire,England,GB,Hereford,52.28131,-2.84294,6,,,1120,app,A♭,831.5,P,,,,Anticlockwise,http://www.bagleybells.co.uk/towers/herfs.htm#AYMESTREY,HDG,SO425651,HR6 9SU,,,,,I,1082113,618191,0237,AYMESTREY,,
14772,Full circle ring,Aynho,,,S Michael,,Northamptonshire,England,GB,Peterborough,51.99360,-1.25224,8,,,1840,,F,684.0,P,,T,,,,PDG,SP514330,OX17 3BG,"Tue (2nd, 4th)",,,,I,1371796,628004,0238,AYNHO,,
13230,Full circle ring,Aysgarth,,,S Andrew,,North Yorkshire,England,GB,Leeds,54.29238,-1.98333,6,,,1326,,F♯,751.0,C,,T,,,,YACR,SE011885,DL8 3SR,,1913,Gillett & Johnston,1913,II*,1318439,646038,0239,AYSGARTH,,
13052,Full circle ring,Ayston,,,S Mary V,,Rutland,England,GB,ChConsvnTrust,52.59968,-0.73267,4,,,1407,,G,770.0,P,GF,,,,,PDG,SK859009,LE15 9AE,,19 Feb 2015,John Taylor & Co,,II*,1361553,628347,0240,AYSTON,52.59968,-0.73074
12736,Full circle ring,Aythorpe Roding,,,S Mary,,Essex,England,GB,Chelmsford,51.81433,0.29693,3,u/r,,728,app,B,,P,GF,,,Unringable; No stays or sliders,,,TL584153,CM6 1RZ,,,,,II*,1141292,608507,7482,AYTHORPE R,,
17132,Full circle ring,Babcary,,,Holy Cross,,Somerset,England,GB,Bath+Wells,51.05665,-2.62725,6,,,1344,app,G,769.5,P,,T,,,http://bath-wells.org/towerselect.php?DoveID=BABCARY,B&W,ST561287,TA11 7DT,Tue (not always: check) 19:00,,,,II*,1277940,601062,0242,BABCARY,,
10636,Full circle ring,Babworth,,,All Saints,,Nottinghamshire,England,GB,SouthwellNottm,53.32006,-0.97138,6,,,816,,A♭,851.0,C,,T,,,,Swell,SK686808,DN22 8EP,Mon,,,,I,1370370,638082,0243,BABWORTH,53.31797,-0.97551
10878,Full circle ring,Backford,,,S Oswald,,Cheshire,England,GB,Chester,53.23877,-2.90348,6,,,1132,,G,801.5,C,GF,T,,,,CheDG,SJ397716,CH2 4BE,Tue,,,,II*,1115612,609171,0244,BACKFORD,,
11245,Full circle ring,Backwell,,,S Andrew,,Somerset,England,GB,Bath+Wells,51.41171,-2.73039,10,,,1997,,E♭,609.5,C,,T,,,http://bath-wells.org/towerselect.php?DoveID=BACKWELL,B&W,ST492683,BS48 3JB,Wed,4 Jun 2018,John Taylor & Co,,I,1129810,601366,0245,BACKWELL,,
12333,Full circle ring,Bacton,,,S Faith,,Herefordshire,England,GB,Hereford,51.98628,-2.91771,4,,,784,app,B♭,924.5,P,GF,,,Tuning: 1-4 of 6,http://www.bagleybells.co.uk/towers/herfs.htm#BACTON_HFS,HDG,SO370323,HR2 0AR,,,,,II*,1098657,618006,0246,BACTON HFS,,
15919,Full circle ring,Bacton,,,S Andrew,,Norfolk,England,GB,Norwich,52.85003,1.46746,6,,,787,,B♭,,P,GF,,,,,NDA,TG335336,NR12 0JP,,,,,II*,1373817,626200,6568,BACTON NOR,,
11939,Full circle ring,Bacton,,,S Mary V,,Suffolk,England,GB,StEds+Ipswich,52.26458,1.00706,6,,,992,,F♯,759.0,C,GF,,,Tower notice(s) / DBR info discrepant,http://www.suffolkbells.org.uk/towers/bacton1.php,Suff,TM052671,IP14 4LL,,1972,Whitechapel Bell Foundry Ltd,1972,I,1032755,633119,0247,BACTON SUF,,
12876,Full circle ring,Bacup,,,Christ Church,,Lancashire,England,GB,Manchester,53.70669,-2.19370,8,u/r,,1183,,A♭,822.5,C,,T,,Church closed; Building is up for sale / under offer; unringable,,Lancs,SD873233,OL13 9DR,,,,,II,1072858,624366,0248,BACUP CHCH,,
13715,Full circle ring,Badby,,,S Mary,,Northamptonshire,England,GB,Peterborough,52.22399,-1.18230,6,,,1579,,E,657.0,C,GF,T,,,,PDG,SP559587,NN11 3AR,Wed,,,,II*,1075276,628077,0250,BADBY,,
10798,Full circle ring,Badgeworth,,,Holy Trinity,,Gloucestershire,England,GB,Gloucester,51.87160,-2.14465,6,,,1456,app,F,713.0,P,GF,T,,,http://www.bagleybells.co.uk/towers/glos.htm#BADGEWORTH,G&B,SO901192,GL51 4UL,Fri,2011,Andrew Nicholson,2011,I,1340103,616224,0251,BADGEWORTH,,
16390,Full circle ring,Badgworth,,,S Congar,,Somerset,England,GB,Bath+Wells,51.26943,-2.86752,5,,,1215,,F♯,759.0,C,,,,,http://bath-wells.org/towerselect.php?DoveID=BADGWORTH,B&W,ST395526,BS26 2QP,,4 Sep 2019,Matthew Higby,,II,1059100,601043,0252,BADGWORTH,,
15830,Full circle ring,Badingham,,,S John Bapt,,Suffolk,England,GB,StEds+Ipswich,52.26466,1.37724,5,,,1008,app,G,811.5,P,GF,,,,http://www.suffolkbells.org.uk/towers/badingham1.php,Suff,TM305683,IP13 8JX,,1938,Alfred Bowell,,I,1030808,633433,0253,BADINGHAM,,
12682,Full circle ring,Badminton,,,S Michael & All Angels,Great Badminton,Gloucestershire,England,GB,Gloucester,51.54443,-2.28015,3,,,911,,A♭,831.0,C,,T,,Ringing restricted (invitees only); Ellacombe apparatus,,G&B,ST806828,GL9 1DB,,,,,I,1155177,616157,6491,BADMINTON,,
16045,Full circle ring,Badsey,,,S James,,Worcestershire,England,GB,Worcester,52.08634,-1.89796,8,,,1684,,F,707.0,C,,T,,,http://www.wdcra.org.uk/badsey.htm,WDA,SP070431,WR11 7JZ,Mon,1950,John Taylor & Co,1950,II*,1081600,642004,0254,BADSEY,,
10992,Full circle ring,Badsworth,,,S Mary V,,West Yorkshire,England,GB,Leeds,53.62919,-1.30103,6,,,1480,,E,665.0,C,,,,,,YACR,SE463149,WF9 1AJ,Fri,2002,,,I,1052219,646039,0255,BADSWORTH,,
10307,Full circle ring,Badwell Ash,,,S Mary,,Suffolk,England,GB,StEds+Ipswich,52.28290,0.91513,5,,,1386,,F♯,742.0,P,GF,,,,http://www.suffolkbells.org.uk/towers/badwellash1.php,Suff,TL989689,IP31 3DH,,1900,George Day & Sons,,I,1032210,633196,0256,BADWELL AS,,
11317,Full circle ring,Baglan,,,S Catharine,,Neath Port Talbot,Wales,GB,Llandaff,51.61497,-3.80279,6,,,1436,,G,783.0,C,,,,,,L&M,SS752922,SA12 8NP,,,,,I,14171,638,0257,BAGLAN,,
15001,Full circle ring,Bagshot,,,S Anne,,Surrey,England,GB,Guildford,51.36064,-0.69902,8,,,1923,,E♭,623.0,C,,,,,http://www.saintannebagshot.org.uk/bellringers.shtml,GDG,SU906632,GU19 5EJ,Thu,1947,Gillett & Johnston,1914,II,1189873,617105,0258,BAGSHOT,,
15161,Full circle ring,Bainton,,,S Mary,,Cambridgeshire,England,GB,Peterborough,52.64115,-0.38413,4,u/r,,1232,app,,,P,GF,,,One bell (or more) cracked or broken; unringable,http://www.petbells.org.uk/bainton,PDG,TF094060,PE9 3AQ,,,,,I,1309975,628202,0259,BAINTON,,
10677,Full circle ring,Bakewell,,,All Saints,,Derbyshire,England,GB,Derby,53.21298,-1.67866,8,,,1897,,F,679.0,C,,,,,,DDA,SK215684,DE45 1FD,Thu,1960,John Taylor & Co,,I,1316489,612025,0260,BAKEWELL,,
16605,Full circle ring,Balcombe,,,S Mary,,West Sussex,England,GB,Chichester,51.06257,-0.13638,8,,,1018,,A,860.0,C,GF,T,,,,SuxCA,TQ306309,RH17 6PY,Tue,,,,I,1354797,610152,0261,BALCOMBE,,
11379,Full circle ring,Baldersby,,,S James,,North Yorkshire,England,GB,York,54.18700,-1.44053,8,u/r,,2822,,C♯,,P,,,,Unringable; tower unsafe,,YACR,SE366769,YO7 4PU,,,,,I,1296495,643583,0262,BALDERSBY,,
14817,Full circle ring,Balderton,,,S Giles,,Nottinghamshire,England,GB,SouthwellNottm,53.05531,-0.77823,8,,,922,,A♭,828.0,C,,T,,County books / pNBR info discrepant; tower notice(s) / DBR info discrepant,,Swell,SK819515,NG24 3NP,Mon 18:30,,,1951,I,1369963,638049,0264,BALDERTON,,
12185,Full circle ring,Baldock,,,S Mary V,,Hertfordshire,England,GB,St Albans,51.98969,-0.19000,8,,,2990,,D,601.0,C,,,,,http://www.hcacr.org.uk/northern/baldock/index.html,HCA,TL243339,SG7 5AD,Wed,1935,Mears & Stainbank,,I,1347611,632210,0265,BALDOCK,,
12390,Full circle ring,Bale,,,All Saints,,Norfolk,England,GB,Norwich,52.89062,0.98761,5,u/r,,1008,app,G,,P,GF,,,Unringable,,NDA,TG010367,NR21 0QZ,,1964,Local labour/guild/assn,,I,1305752,626598,0266,BALE,,
14942,Full circle ring,Ballarat,,"Ballarat, S Peter",S Peter,,Victoria,Australia,AU,AnglicanNonUK,-37.56040,143.84043,8,,,1288,app,F♯,735.5,P,,,,,http://www.anzab.org.au/towers.php?tower=BAL,ANZAB,,,Wed (not always: check),1965,Whitechapel Bell Foundry Ltd,1965,,,,5920,BALLARATSP,,
15347,Full circle ring,Ballarat,,"Ballarat, Town Hall",Town Hall,,Victoria,Australia,AU,Secular Tower,-37.56214,143.85673,8,,,2474,,D♯,607.5,C,,T,,Also a 16-bell chime in a separate glass tower; tuned to old concert pitch (A=454Hz),http://www.anzab.org.au/towers.php?tower=CHB,ANZAB,,3350,Sun (see tower website) 13:00,1982,Whitechapel Bell Foundry Ltd,1982,,,,5921,BALLARATTH,,
10633,Full circle ring,Ballingham,,,S Dubricius,,Herefordshire,England,GB,Hereford,51.98169,-2.61890,3,u/r,,840,app,,,P,,,,Derelict; one bell (or more) cracked or broken; unringable,,,SO575316,HR1 4SJ,,,,,II*,1214127,618085,6542,BALLINGHAM,,
11938,Full circle ring,Ballylesson,Drumbo,,Holy Trinity,Drumbo,Down,Island of Ireland,GB,(Ireland),54.53632,-5.94721,8,,,1315,,F♯,753.0,C,,T,,,,Irish,J329672,BT8 8JT,"Thu (1st, 3rd: check)",,,,B+,6100,,5892,BALLYLESSO,,
16273,Full circle ring,Ballymena,,,S Patrick,,Antrim,Island of Ireland,GB,(Ireland),54.86291,-6.27319,12,,,1641,,F♯,740.0,C,,,,Ringing temporarily suspended,http://www.stpatricksballymena.co.uk/,Irish,D109030,BT43 7BT,,,,,B+,2888,,5880,BALLYMENA,,
11619,Full circle ring,Balsham,,,Holy Trinity,,Cambridgeshire,England,GB,Ely,52.13318,0.31829,6,,,1470,,F,700.0,C,,T,,,http://www.cambridgeringing.info/Towers/tower.php?id=2,Ely,TL587508,CB21 4DS,Tue,,,,I,1331425,614065,0267,BALSHAM,,
13047,Full circle ring,Baltonsborough,,,S Dunstan,,Somerset,England,GB,Bath+Wells,51.11050,-2.65628,6,,,2194,,D,597.0,C,,T,,,http://bath-wells.org/towerselect.php?DoveID=BALTONSBOR,B&W,ST541347,BA6 8RL,"Tue (1st, 3rd, 5th)",2008,John Taylor & Co,2008,I,1345010,601120,0268,BALTONSBOR,,
13024,Full circle ring,Bamber Bridge,Brownedge,,S Mary,Brownedge,Lancashire,England,GB,Salford,53.73019,-2.66753,8,,,1676,,F♯,720.5,C,,T,,,,Lancs,SD560261,PR5 6SP,,2006,Hayward Mills Associates,,II,1290093,,0269,BAMBER BRI,,
12148,Full circle ring,Bamburgh,,,S Aidan,,Northumberland,England,GB,Newcastle,55.60796,-1.71850,8,,,1551,,F♯,737.0,C,,,,Tower notice(s) / DBR info discrepant,,D&N,NU178349,NE69 7AB,Tue 19:00,1982,Whitechapel Bell Foundry Ltd,,I,1042269,625199,0270,BAMBURGH,,
11732,Full circle ring,Bamford in the Peak,,,S John Bapt,,Derbyshire,England,GB,Derby,53.34691,-1.68977,6,,,474,,D,1168.0,C,,T,,PN shared with Hathersage,,DDA,SK207833,S33 0AY,"Wed (1st, 3rd)",,,1998,II*,1087859,612026,0271,BAMFORD IN,,
15240,Full circle ring,Bampton,,,S Patrick,,Cumbria,England,GB,Carlisle,54.55528,-2.74145,6,,,569,,D,1177.5,C,,T,T,"Also, above, a ring of 5 (ringing fittings removed)",http://carlisle-dgcbr.org.uk/towers/bampton/,CarDG,NY521180,CA10 2QR,,,,,II*,1145258,607008,7843,BAMPTON CU,,
15240,Full circle ring,Bampton,,,S Patrick,,Cumbria,England,GB,Carlisle,54.55528,-2.74145,5,u/r,,896,app,C,1027.0,P,,T,,Unringable,http://carlisle-dgcbr.org.uk/towers/bampton/,CarDG,NY521180,CA10 2QR,,,,,II*,1145258,607008,0272,BAMPTON CV,,
12114,Full circle ring,Bampton,,,S Michael & All Angels,,Devon,England,GB,Exeter,50.99011,-3.48818,6,,,1571,,F♯,741.0,C,,,T,ART Teaching Centre: Troyte Ringing Centre,http://www.bampton.org.uk/ringers.html,GDR,SS956222,EX16 9NA,Thu,,,,I,1306717,615212,0273,BAMPTON DV,,
12367,Full circle ring,Bampton,,,S Mary,,Oxfordshire,England,GB,Oxford,51.72774,-1.54864,8,,,2580,,D,573.0,C,,,,,,ODG,SP312033,OX18 2LW,Mon,2007,Whites of Appleton,,I,1053559,627236,0274,BAMPTON OX,,
14105,Full circle ring,Banbury,,"Banbury, S John",S John Ev,,Oxfordshire,England,GB,Birmingham (RC),52.05796,-1.33993,3,u/r,,169,,B♭,,P,,,,Unringable,,,SP453401,OX16 5HX,,,,,II,1046906,,6823,BANBURY RC,,
13990,Full circle ring,Banbury,,"Banbury, S Mary",S Mary,,Oxfordshire,England,GB,Oxford,52.06151,-1.33938,10,,,1913,,E,656.0,C,,T,,The ringing bells form part of a 12-bell chime,,ODG,SP453405,OX16 0AA,Wed,1930,John Taylor & Co,1930,I,1369519,627130,0275,BANBURY MA,,
11430,Full circle ring,Bandon,Ballymodan,,S Peter,Ballymodan,Cork,Island of Ireland,IE,(Ireland),51.74357,-8.73994,6,,,1613,,G,,P,,,,,,Irish,W489547,P72 AK12,Wed 20:00,,,,Listed,20844137,,5885,BANDON,,
11868,Full circle ring,Bangor,,,S Comgall,,Down,Island of Ireland,GB,(Ireland),54.66059,-5.66684,8,,,2356,,E,646.0,C,,,T,County books / pNBR info discrepant,http://bangorparishchurch.org.uk,Irish,J506816,BT20 4JP,Fri,,,,B+,15713,,5893,BANGOR  D,,
12084,Full circle ring,Bangor,Glanadda,,S David,Glanadda,Gwynedd,Wales,GB,Bangor,53.21958,-4.13870,8,,,1505,,F♯,,P,,,,Church closed; ringing prohibited,,NWA,SH573713,LL57 2XZ,,,,,II,3953,2026,0277,BANGOR  G,,
14521,Full circle ring,Bangor on Dee,,,S Dunawd,Bangor Monachorum; Bangor-is-y-Coed,Wrexham,Wales,GB,St Asaph,53.00241,-2.91259,6,,,952,app,B♭,,P,GF,,,,,NWA,SJ388454,LL13 0BU,,1946,John Taylor & Co,,II*,1644,1709,0276,BANGOR OND,,
16902,Full circle ring,Banham,,,S Mary,,Norfolk,England,GB,Norwich,52.45298,1.03511,6,,,1159,,F♯,760.0,C,GF,,,,,NDA,TM063882,NR16 2HR,Tue (alt) 18:30,1927,John Taylor & Co,,I,1169031,626434,0278,BANHAM,,
17086,Full circle ring,Banstead,,,All Saints,,Surrey,England,GB,Guildford,51.32195,-0.20092,8,,,2379,,E♭,618.5,C,GF,,,,http://towers.surreybellringers.org.uk/pages/banstead-all-saints,GDG;Surr,TQ254596,SM7 2NG,Wed 20:00,1921,,,II*,1029028,617152,0279,BANSTEAD,,
11561,Full circle ring,Banwell,,,S Andrew,,Somerset,England,GB,Bath+Wells,51.32815,-2.86349,10,,,2580,,D,588.0,C,,T,,,http://bath-wells.org/towerselect.php?DoveID=BANWELL,B&W,ST399591,BS29 6EA,Wed,,,,I,1320659,601320,0280,BANWELL,,
12443,Full circle ring,Barbon,,,S Bartholomew,,Cumbria,England,GB,Carlisle,54.23653,-2.56825,6,,,837,,A,893.0,P,,T,,,,Lancs,SD630824,LA6 2LG,Thu 17:30,2003,Eayre & Smith,,II*,1086928,607223,0281,BARBON,,
10922,Full circle ring,Barby,,,S Mary,Church Barby,Northamptonshire,England,GB,Peterborough,52.32808,-1.20426,5,,,1683,,F,709.5,C,GF,,,,,PDG,SP543702,CV23 8TY,Mon 19:00,,,,II*,1076479,628078,0282,BARBY,,
13671,Full circle ring,Barcombe,,,S Mary V,,East Sussex,England,GB,Chichester,50.91087,0.01634,6,,,1010,,F♯,758.0,C,GF,T,,,,SuxCA,TQ418143,BN8 5TS,Thu (not always: check),,,,II*,1043993,610431,0283,BARCOMBE,,
11893,Full circle ring,Bardney,,,S Laurence,,Lincolnshire,England,GB,Lincoln,53.20948,-0.32563,6,,,896,app,G,793.0,P,,,,,,LinDG,TF119693,LN3 5TZ,,,,,I,1359500,621600,0284,BARDNEY,,
12450,Full circle ring,Bardon,,,S Peter,,Leicestershire,England,GB,Leicester,52.70903,-1.33600,3,,,941,,B,975.0,C,,,,,,,SK449125,LE67 1TD,,,,,II,1295209,619217,6935,BARDON,,
10111,Full circle ring,Bardsey,,,All Hallows,,West Yorkshire,England,GB,Leeds,53.88301,-1.44544,3,u/r,,672,app,C,,P,,,,Unringable,,,SE365431,LS17 9AY,,,,,I,1135652,646044,7629,BARDSEY,,
10806,Full circle ring,Bardwell,,,S Peter & S Paul,,Suffolk,England,GB,StEds+Ipswich,52.32624,0.84683,8,,,1315,,F♯,752.0,C,,T,T,ART Teaching Centre: Bardwell Teaching Centre,http://www.suffolkbells.org.uk/towers/bardwell1.php,Suff,TL940736,IP31 1AH,Wed 19:00,2009,Hayward Mills Associates,,I,1376891,633197,0285,BARDWELL,,
10777,Full circle ring,Barford,,,S Peter,,Warwickshire,England,GB,Coventry,52.24567,-1.60268,6,,,554,,B,1006.0,C,,T,,,http://warksbells.co.uk/barford/,CovDG,SP272609,CV35 8ES,Mon,,,,II*,1116437,611164,5824,BARFORD,,
10215,Full circle ring,Barford St Martin,,,S Martin,,Wiltshire,England,GB,Salisbury,51.08180,-1.92056,6,,,1167,,F♯,707.0,P,GF,,,Ringing discontinued while restoration work under way; rung from chancel crossing,http://www.sdgr.org.uk/branches/salisbury/tower-8,Salis,SU056313,SP3 4AL,,,,,I,1146188,634373,0286,BARFORD ST,,
13384,Full circle ring,Barham,,,S John Bapt,,Kent,England,GB,Canterbury,51.20648,1.16178,5,,,1319,,F♯,724.5,C,,T,,,http://kent.lovesguide.com/tower.php?id=9,KCA,TR209500,CT4 6PB,Mon 18:45,,,,I,1084903,606007,0287,BARHAM KNT,,
16954,Full circle ring,Barham,,,S Mary,,Suffolk,England,GB,StEds+Ipswich,52.11552,1.11937,6,,,1336,,A♭,832.7,C,GF,T,,,https://www.suffolkbells.org.uk/towers/barham1.php,Suff,TM136509,IP6 0PT,,18 Dec 2020,John Taylor & Co,2020,I,1033288,633005,0288,BARHAM SFK,,
13921,Full circle ring,Barholm,,,S Martin,,Lincolnshire,England,GB,Lincoln,52.68550,-0.38897,3,,,683,,D♯,1213.0,C,GF,,,Ropes fall in a straight line; No stays or sliders; tuning: 1-3 of 5,,,TF089109,PE9 4RE,,1999,John Taylor & Co,,I,1360165,621004,6936,BARHOLM,,
10027,Full circle ring,Barkby,,,S Mary,,Leicestershire,England,GB,Leicester,52.68267,-1.05969,6,,,1539,,E,658.0,C,,T,,Tue PN shared: Barkby; Queniborough,,LeiDG,SK636098,LE7 3QJ,Tue (alt: check) 18:00,,,,I,1074500,619172,0289,BARKBY,,
10337,Full circle ring,Barkestone le Vale,,,S Peter & S Paul,,Leicestershire,England,GB,Leicester,52.90629,-0.84517,4,u/r,,896,app,G,761.0,P,,,,Unringable,,LeiDG,SK777349,NG13 0HF,,1877,John Taylor & Co,,II*,1188593,619045,5825,BARKESTONE,,
14985,Full circle ring,Barkham,,,S James,,Berkshire,England,GB,Oxford,51.39142,-0.87468,4,,,405,,C,,P,,,,Normally upstairs but GF ringing also possible from porch,,ODG,SU783664,RG40 4PL,Wed (3rd) 19:00,1997,Whites of Appleton,,II,1118116,627480,0290,BARKHAM,,
15510,Full circle ring,Barking,,,S Margaret,,Greater London,England,GB,Chelmsford,51.53549,0.07559,8,,,2093,,E♭,,P,,T,,,,Essex,TQ440838,IG11 8AS,Thu,1974,Whitechapel Bell Foundry Ltd,1974,I,1064408,608004,0291,BARKING GL,,
15693,Full circle ring,Barking,,,S Mary,,Suffolk,England,GB,StEds+Ipswich,52.14126,1.03287,6,,,1267,,G,780.0,C,GF,,,,http://www.suffolkbells.org.uk/towers/barking1.php,Suff,TM076535,IP6 8HJ,Mon,,,,I,1231756,633006,0292,BARKING SU,52.14183,1.03322
16995,Full circle ring,Barkingside,,,S George,,Greater London,England,GB,Chelmsford,51.57887,0.06376,8,,,1129,,G,764.0,C,,,,,,Essex,TQ430886,IG2 6XF,Tue,,,,None,None,608148,0293,BARKINGSID,,
16456,Full circle ring,Barkston,,,S Nicholas,,Lincolnshire,England,GB,Lincoln,52.96299,-0.61271,6,,,1469,,G,760.0,C,,,,,,LinDG,SK932415,NG32 2NB,Mon,1952,John Taylor & Co,,I,1317449,621249,0294,BARKSTON,,
16879,Full circle ring,Barkway,,,S Mary Magd,,Hertfordshire,England,GB,St Albans,52.00169,0.01271,8,,,1627,,F,692.5,P,GF,T,,,http://www.barkwaybells.org.uk/,HCA,TL382356,SG8 8EJ,Mon,1993,Whitechapel Bell Foundry Ltd,1993,I,1102624,632084,0295,BARKWAY,,
14405,Full circle ring,Barlaston,,,S John Bapt,,Staffordshire,England,GB,Lichfield,52.94213,-2.16247,6,,,571,,D,1146.0,C,,T,,,,NSA,SJ891383,ST12 9DE,Fri,,,,None,None,620412,0296,BARLASTON,,
10809,Full circle ring,Barlborough,,,S James,,Derbyshire,England,GB,Derby,53.28952,-1.28611,6,,,1304,,F♯,,P,,T,,,,DDA,SK476771,S43 4ER,,,,,II*,1335412,612054,0297,BARLBOROUG,53.28926,-1.28505
12453,Full circle ring,Barley,,,S Margaret of Antioch,,Hertfordshire,England,GB,St Albans,52.02647,0.04143,6,,,870,,A,,P,GF,,,One bell (or more) cracked or broken,http://www.hcacr.org.uk/bstortford/barley/index.html,HCA,TL401384,SG8 8JZ,Tue,1921,George Day & Sons,,II*,1102577,632086,0298,BARLEY,,
14058,Full circle ring,Barmby Moor,,,S Catherine,,East Riding of Yorkshire,England,GB,York,53.93075,-0.81916,6,,,843,,A,884.0,C,,T,,,,Bev&D;YACR,SE776489,YO42 4EF,,1988,Hayward Mills Associates,,II*,1083879,643117,6106,BARMBYMOOR,,
10123,Full circle ring,Barming,,,S Margaret of Antioch,,Kent,England,GB,Rochester,51.26119,0.46375,6,,,1016,,G,778.0,C,,,,,http://kent.lovesguide.com/tower.php?id=10,KCA,TQ719542,ME16 9HA,Fri,7 Nov 2014,Whites of Appleton,2014,II*,1060773,631160,0300,BARMING,,
14343,Full circle ring,Barmouth,,,S John,Abermo,Gwynedd,Wales,GB,Bangor,52.72319,-4.05449,8,,,2479,,E,652.5,C,,,,,,NWA,SH613159,LL42 1DF,,,,,II*,15467,2066,0301,BARMOUTH,,
11432,Full circle ring,Barnack,,,S John Bapt,,Cambridgeshire,England,GB,Peterborough,52.63258,-0.40695,6,,,959,,G♯,828.0,C,GF,T,,,http://www.petbells.org.uk/barnack,PDG,TF079050,PE9 3DN,Thu (2nd),1999,Hayward Mills Associates,,I,1126844,628203,0302,BARNACK,,
13427,Full circle ring,Barnard Castle,,,S Mary V,,Durham,England,GB,Durham,54.54177,-1.92326,8,,,1904,,F,690.0,P,,,,,,D&N,NZ050162,DL12 8PQ,Mon,1952,John Taylor & Co,,I,1218277,613210,0303,BARNARD CA,,
16394,Full circle ring,Barnardiston,,,All Saints,,Suffolk,England,GB,StEds+Ipswich,52.11018,0.49826,5,u/r,,896,app,A♭,850.0,P,GF,,,Unringable,http://www.suffolkbells.org.uk/towers/barnardiston1.html,Suff,TL711487,CB9 7TL,,,,,II*,1031773,633172,0304,BARNARDIST,,
16608,Full circle ring,Barnburgh,,,S Peter,,South Yorkshire,England,GB,Sheffield,53.52336,-1.27138,5,,,1015,,G,764.0,P,,,,,,YACR,SE484032,DN5 7ES,,,,,I,1151675,635215,6120,BARNBURGH,,
15445,Full circle ring,Barnby Dun,,,S Peter & S Paul,,South Yorkshire,England,GB,Sheffield,53.58057,-1.07408,6,,,1120,app,A♭,829.0,P,,,,"Thu PN shared: Barnby Dun(1st,2nd,3rd); Arksey(4th,5th)",,YACR,SE614097,DN3 1SQ,"Thu (1st, 2nd, 3rd) 18:00",1996,,,I,1151488,635146,0305,BARNBY DUN,,
14951,Full circle ring,Barnby in the Willows,,,All Saints,,Nottinghamshire,England,GB,SouthwellNottm,53.06004,-0.71787,6,,,707,,C,1036.0,C,GF,,,,,Swell,SK860521,NG24 2SB,Tue 19:00,,,,I,1302715,638050,0306,BARNBY IN,,
11169,Full circle ring,Barnes,,,S Mary,,Greater London,England,GB,Southwark,51.47489,-0.24205,8,,,1196,,G,,P,GF,T,T,,http://www.barnesbellringers.org/,Surr,TQ221765,SW13 9HL,Fri,1933,Whitechapel Bell Foundry Ltd,1933,II*,1358083,637317,0307,BARNES,,
14421,Full circle ring,Barnet,,,S John Bapt,Chipping Barnet,Greater London,England,GB,St Albans,51.65310,-0.20120,8,,,2563,,D,583.0,C,,,,,http://www.hcacr.org.uk/stalbans/cbarnet/index.html,HCA;Middx,TQ245964,EN5 4BW,Mon,1992,John Taylor & Co,1992,II*,1359101,632019,0308,BARNET,,
10229,Full circle ring,Barnetby le Wold,,,S Mary,,Lincolnshire,England,GB,ChConsvnTrust,53.56756,-0.39877,3,u/r,,784,app,B,962.5,P,,,,Derelict; unringable,,,TA061090,DN38 6JL,,,,,I,1103677,621420,6259,BARNETBY,,
13080,Full circle ring,Barnham,,,S Gregory,,Suffolk,England,GB,StEds+Ipswich,52.37899,0.74732,4,u/r,,728,app,B♭,887.0,P,,,,One bell (or more) cracked or broken; unringable,http://www.suffolkbells.org.uk/towers/barnham1.html,Suff,TL870792,IP24 2NB,,,,,II,1031280,633198,0309,BARNHAM,,
11738,Full circle ring,Barnham Broom,,,S Peter & S Paul,,Norfolk,England,GB,Norwich,52.62786,1.07510,5,,,1028,,G,774.0,C,,,T,Tuning: (approx) 1-5 of 6,,NDA,TG082077,NR9 4DB,Mon 19:00,,,,I,1050739,626275,0310,BARNHAM BR,,
16687,Full circle ring,Barningham,,,S Andrew,,Suffolk,England,GB,StEds+Ipswich,52.35474,0.88796,3,u/r,,1120,app,G,800.0,P,,,,Unringable,,,TL967768,IP31 1DD,,,,,I,1376995,633199,6937,BARNINGHAM,,
17023,Full circle ring,Barnoldby le Beck,,,S Helen,,Lincolnshire,England,GB,Lincoln,53.51199,-0.13845,5,,,858,,A,890.5,P,,T,,,,LinDG,TA235033,DN37 0BH,Fri,,,,I,1103486,621570,6099,BARNOLDBYL,,
12339,Full circle ring,Barnoldswick,,,S Mary le Ghyll,,Lancashire,England,GB,Leeds,53.92817,-2.16447,6,,,1389,,A♭,832.0,C,,T,,,,Lancs;YACR,SD892480,BB18 6JH,Tue,2009,John Taylor & Co,2009,I,1073421,646048,6835,BARNOLDSWI,,
15834,Full circle ring,Barnsley,,,S Mary,,Gloucestershire,England,GB,Gloucester,51.74447,-1.88961,6,,,529,,C,,P,GF,,,,http://www.bagleybells.co.uk/towers/glos.htm#BARNSLEY_G,G&B,SP077050,GL7 5EF,Wed,1987,Whitechapel Bell Foundry Ltd,,II*,1303501,616309,0311,BARNSLEY G,,
10481,Full circle ring,Barnsley,,,S Mary,,South Yorkshire,England,GB,Leeds,53.55538,-1.48320,8,,,1505,,F♯,724.0,C,,,,,,YACR,SE343066,S70 2AH,Tue,1936,Gillett & Johnston,1936,II*,1315008,646051,0312,BARNSLEY Y,,
15983,Full circle ring,Barnstaple,,,S Peter & S Mary Magd,,Devon,England,GB,Exeter,51.08007,-4.05940,8,,,2156,,E♭,634.5,C,GF,T,,Rung from aisle : south,,DevAs,SS558332,EX31 1BL,Fri (3rd),1980,,,II*,1385251,615401,0313,BARNSTAPLE,,
10976,Full circle ring,Barnwood,,,S Lawrence,,Gloucestershire,England,GB,Gloucester,51.85813,-2.20712,8,,,1132,,G,791.0,C,,,,,http://www.bagleybells.co.uk/towers/glos.htm#BARNWOOD,G&B,SO858177,GL4 3EJ,Mon,21 Jul 2013,Whites of Appleton,1913,II*,1271586,616113,0314,BARNWOOD,,
15121,Full circle ring,Barrington,,,All Saints,,Cambridgeshire,England,GB,Ely,52.13041,0.03890,6,,,1235,,G,797.0,C,GF,,,,http://www.cambridgeringing.info/Towers/tower.php?id=3,Ely,TL396499,CB22 7RG,Mon 20:00,2005,Hayward Mills Associates,,I,1331176,614135,0315,BARRINGT C,,
13108,Full circle ring,Barrington,,,Blessed Virgin Mary,,Somerset,England,GB,Bath+Wells,50.95924,-2.87121,6,,,1766,,E,661.0,P,,,,,http://bath-wells.org/towerselect.php?DoveID=BARRINGT+S,B&W,ST389181,TA19 0JD,,,,,I,1056904,601491,0316,BARRINGT S,,
11780,Full circle ring,Barrow,,,All Saints,,Suffolk,England,GB,StEds+Ipswich,52.25152,0.57710,6,,,1270,,G,767.0,C,GF,,,PN shared: Barrow; Horringer,http://www.suffolkbells.org.uk/towers/barrow1.php,Suff,TL760646,IP29 5BA,Thu (check with contact) 19:00,1996,Eayre & Smith,1996,I,1376863,633306,0317,BARROW,,
13023,Full circle ring,Barrow Gurney,,,Blessed Virgin Mary & S Edward K&M,,Somerset,England,GB,Bath+Wells,51.41306,-2.69943,8,,,1251,,F♯,741.0,C,GF,T,,,http://bath-wells.org/towerselect.php?DoveID=BARROW+GUR,B&W,ST514684,BS48 3RP,Wed 18:15,2003,Whites of Appleton,,II*,1311925,601367,0318,BARROW GUR,,
11486,Full circle ring,Barrow in Furness,,,S James Gt,,Cumbria,England,GB,Carlisle,54.11903,-3.23337,8,,,1368,,F,710.0,C,,T,T,,http://www.barrowbells.org.uk,Lancs,SD194699,LA14 5UE,Wed,2 Feb 2014,Andrew Nicholson,2013,II*,1197881,607161,0319,BARROW IN,,
11981,Full circle ring,Barrow upon Humber,,,Holy Trinity,,Lincolnshire,England,GB,Lincoln,53.67841,-0.37854,12,,,1828,,E,650.5,C,,T,T,CC recognised Ringing Centre; ART Teaching Centre: Barrow-upon-Humber,http://www.lowwood.org.uk,LinDG,TA072214,DN19 7AN,Mon,2007,John Taylor & Co,,I,1346864,621422,0320,BARROW UH,,
14755,Full circle ring,Barrow upon Soar,,,Holy Trinity,,Leicestershire,England,GB,Leicester,52.75272,-1.14765,8,,,1078,,G,769.0,C,,T,,,,LeiDG,SK576175,LE12 8PP,Thu (not always: check) 18:30,,,,II*,1074589,619192,0321,BARROW US,,
15710,Full circle ring,Barrow upon Trent,,,S Wilfrid,,Derbyshire,England,GB,Derby,52.85185,-1.47750,3,u/r,,1008,app,G,796.0,P,,T,,Unringable; anticlockwise; tuning: (approx) 1-3 of 5,,DDA,SK352283,DE73 7HD,,,,,I,1096559,612312,6061,BARROW UT,,
12968,Full circle ring,Barrowby,,,All Saints,,Lincolnshire,England,GB,Lincoln,52.91861,-0.69488,6,,,1173,,G,794.0,C,,,,,,LinDG,SK878364,NG32 1BX,Wed,1990,Fred Pembleton,,I,1194848,621160,0322,BARROWBY,,
14211,Full circle ring,Barrowden,,,S Peter,,Rutland,England,GB,Peterborough,52.58871,-0.60691,6,,,1109,,G♯,818.0,C,GF,,,,,PDG,SP944999,LE15 8ED,Wed,,,,II*,1361433,628204,0323,BARROWDEN,,
12822,Full circle ring,Barsham,,,Holy Trinity,,Suffolk,England,GB,StEds+Ipswich,52.45200,1.52596,5,,,735,,B,961.4,P,GF,,,Round tower,http://www.suffolkbells.org.uk/towers/barsham1.php,Suff,TM396896,NR34 8HB,Tue 19:00,1999,,,I,1032028,633337,0324,BARSHAM,52.45055,1.52804
11569,Full circle ring,Barston,,,S Swithin,,West Midlands,England,GB,Birmingham,52.39973,-1.69673,6,,,619,,C,1068.0,C,GF,,,,http://warksbells.co.uk/barston/,SMB,SP207780,B92 0JU,Thu (2nd) 18:30,1960,John Taylor & Co,,II*,1075964,602154,0325,BARSTON,,
15065,Full circle ring,Barthomley,,,S Bertoline,,Cheshire,England,GB,Chester,53.06806,-2.34842,8,,,1498,,E,,P,,,,,,CheDG,SJ767523,CW2 5PL,,,,,I,1330063,609225,0326,BARTHOMLEY,,
16834,Full circle ring,Bartlow,,,S Mary,,Cambridgeshire,England,GB,Ely,52.08230,0.31300,3,u/r,,1008,app,A,893.5,P,GF,,,Unringable; anticlockwise; round tower; believed to be oldest complete bell and frame installation contemporary with each other,http://www.cambridgeringing.info/Towers/tower.php?id=4,,TL585451,CB21 4PP,,,,,I,1318152,614066,7373,BARTLOW,,
13257,Full circle ring,Barton,,,S Peter,,Cambridgeshire,England,GB,Ely,52.18186,0.05746,6,,,1120,app,A♭,,P,,T,,,http://www.cambridgeringing.info/Towers/tower.php?id=5,Ely,TL407557,CB23 7BE,Thu 20:00,,,,II*,1127829,614003,0327,BARTON  CB,,
10889,Full circle ring,Barton,,,S Cuthbert & S Mary,,North Yorkshire,England,GB,Leeds,54.47543,-1.64588,6,,,783,,B♭,958.0,C,,,,,http://www.riponandleedsbells.org.uk/barton.htm,YACR,NZ230089,DL10 6JF,,,,,II,1131355,646054,0328,BARTON  NY,,
12239,Full circle ring,Barton in Fabis,,,S George,,Nottinghamshire,England,GB,SouthwellNottm,52.88973,-1.22514,6,,,1253,,F♯,758.0,P,GF,,,,,Swell,SK522327,NG11 0AA,,,,,I,1248685,638218,0333,BARTON IN,,
11793,Full circle ring,Barton le Clay,,,S Nicholas,,Bedfordshire,England,GB,St Albans,51.96149,-0.42188,8,,,1834,,F,679.0,C,,,,,,Beds,TL085303,MK45 4JZ,Mon,1990,John Taylor & Co,1990,I,1321346,632256,0334,BARTON LE,,
16265,Full circle ring,Barton Mills,,,S Mary,,Suffolk,England,GB,StEds+Ipswich,52.33554,0.51839,3,u/r,,1344,app,G,802.0,P,,,,Unringable; tuning: 1-3 of 4,,,TL716738,IP28 6AP,,,,,II*,1351305,633251,7551,BARTON MIL,,
14518,Full circle ring,Barton Seagrave,,,S Botolph,,Northamptonshire,England,GB,Peterborough,52.38465,-0.69612,8,,,1058,,A,,P,,,,Anticlockwise,,PDG,SP888770,NN15 6SZ,Mon,,,,I,1051640,628272,0329,BARTON SEA,52.38512,-0.69660
14424,Full circle ring,Barton St David,,,S David,,Somerset,England,GB,Bath+Wells,51.08286,-2.65846,6,,,1102,,A♭,821.0,C,GF,T,,PN shared: Barton St David; Kingweston; West Lydford; octagonal tower,http://bath-wells.org/towerselect.php?DoveID=BARTON+SAI,B&W,ST539317,TA11 6BS,Mon (check with contact),2014,Robert Parker,,II*,1176035,601065,0330,BARTON SAI,,
13777,Full circle ring,Barton Stacey,,,All Saints,,Hampshire,England,GB,Winchester,51.16795,-1.37955,6,,,796,,A♭,850.0,C,,T,,,http://wpbells.org/barton-stacey/,W&P,SU434411,SO21 3RT,Wed,,,,II*,1302289,641141,0331,BARTON STA,,
13132,Full circle ring,Barton Turf,,,S Michael,,Norfolk,England,GB,Norwich,52.74362,1.47007,6,,,1190,,F♯,724.0,C,GF,,,,,NDA,TG343218,NR12 8YU,,1986,John Taylor & Co,1986,I,1049931,626203,0332,BARTON TUR,52.74429,1.47040
13369,Full circle ring,Barton under Needwood,,Barton u Needwood,S James,,Staffordshire,England,GB,Lichfield,52.76409,-1.72318,8,,,1622,,F,688.0,C,,T,,,,LWAS;NSA,SK187185,DE13 8HN,Wed,,,,II*,1038545,620429,0337,BARTON UND,52.76451,-1.72249
16222,Full circle ring,Barton upon Humber,,"Barton upon Humber, S Mary",S Mary,,Lincolnshire,England,GB,Lincoln,53.68451,-0.43700,8,,,1879,,E,667.0,C,,T,,,,LinDG,TA033220,DN18 5HG,Tue (with exceptions),,,,I,1346773,621426,0335,BARTON UPM,53.68429,-0.43726
10183,Full circle ring,Barton upon Humber,,"Barton upon Humber, S Peter",S Peter,,Lincolnshire,England,GB,English Heritage,53.68378,-0.43493,8,,,1150,,F♯,752.0,P,GF,T,,,,LinDG,TA034219,DN18 5EY,,6 Mar 2020,John Taylor & Co,,I,1083103,621424,0336,BARTON UPP,,
13878,Full circle ring,Barwell,,,S Mary,,Leicestershire,England,GB,Leicester,52.56451,-1.34696,8,,,1691,,F,715.5,C,,T,,,,LeiDG,SP443964,LE9 8DF,Tue,,,,I,1074229,619298,0338,BARWELL,,
12285,Full circle ring,Barwick in Elmet,,,All Saints,,West Yorkshire,England,GB,Leeds,53.83138,-1.39269,6,,,1436,,F♯,723.0,C,,T,,,http://www.riponandleedsbells.org.uk/barwick.htm,YACR,SE400374,LS15 4EA,Thu,,,,II*,1357161,646055,0339,BARWICK IN,,
10281,Full circle ring,Baschurch,,,All Saints,,Shropshire,England,GB,Lichfield,52.79137,-2.85842,6,,,1497,,F♯,738.0,C,,T,,,http://www.sacbr.org.uk/Towers/Baschurch/Baschurch.html,Salop,SJ422218,SY4 2EB,Thu (exc 3rd),,,,II*,1176049,620483,5808,BASCHURCH,,
11028,Full circle ring,Basildon,Basildon Bell Tower,,S Martin of Tours,,Essex,England,GB,Chelmsford,51.57061,0.45521,8,,,1312,,G,785.0,C,,,,Detached tower,http://www.stmartinsbasildon.co.uk/,Essex,TQ702886,SS14 1DX,Wed,,,,None,None,608221,6087,BASILDON,51.57114,0.45504
10112,Full circle ring,Basingstoke,,"Basingstoke, All Ss",All Saints,,Hampshire,England,GB,Winchester,51.26068,-1.08826,10,,,1238,,F,710.5,C,,T,T,,http://wpbells.org/basingstoke-all-saints/,W&P,SU637516,RG21 3EA,Mon,2000,Whitechapel Bell Foundry Ltd,2000,II,1278267,641083,0341,BASINGST A,51.26148,-1.08806
16758,Full circle ring,Basingstoke,,"Basingstoke, S Michael",S Michael,,Hampshire,England,GB,Winchester,51.26522,-1.08914,8,,,1606,,F,711.5,C,,,T,,http://www.basingstokebells.org.uk/,W&P,SU636521,RG21 7QW,Wed,1 Feb 2020,John Taylor & Co,,I,1092618,641082,0342,BASINGST M,,
12838,Full circle ring,Baslow,,,S Anne,,Derbyshire,England,GB,Derby,53.24741,-1.62424,6,,,883,,A♭,,P,,,,,,DDA,SK251723,DE45 1RY,,,,,II*,1088200,612027,0343,BASLOW,,
